sa2_name,poi_name,category,longitude,latitude,geometry
Blacktown (East) - Kings Park,BREWONGLE WALKWAY,Park,150.89843351955943,-33.7777475783165,0101000020E61000006A04A7F7BFDC6240CFB48E3B8DE340C0
Blacktown (East) - Kings Park,Park,Park,150.90232411946172,-33.78160912649263,0101000020E61000005DEFD4D6DFDC62403F4592C40BE440C0
Blacktown (East) - Kings Park,Park,Park,150.89955689426324,-33.78149960459325,0101000020E610000010388A2BC9DC624050C8D52D08E440C0
Blacktown (East) - Kings Park,Park,Park,150.89939247741344,-33.77930863692856,0101000020E61000004B98BBD2C7DC62409C8CAA62C0E340C0
Blacktown (East) - Kings Park,Park,Park,150.90574889797338,-33.781910351499185,0101000020E6100000E1E51CE5FBDC6240E30B6EA315E440C0
Blacktown (East) - Kings Park,Park,Park,150.91155731476894,-33.781855527668164,0101000020E610000097EB3E7A2BDD62400BC488D713E440C0
Blacktown (East) - Kings Park,Park,Park,150.91084492020596,-33.778514303322105,0101000020E610000065003FA425DD62404B1E505BA6E340C0
Blacktown (East) - Kings Park,Park,Park,150.9120778175092,-33.77670673431289,0101000020E61000007EB3D1BD2FDD6240793A53206BE340C0
Blacktown (East) - Kings Park,Park,Park,150.8935840776858,-33.78073282567156,0101000020E610000061BCA23D98DC62402696A00DEFE340C0
Blacktown (East) - Kings Park,JOSEPH FRANK PARK,Park,150.89744757990758,-33.76739592042338,0101000020E61000007AB2FCE3B7DC6240B0A68E073AE240C0
Blacktown (East) - Kings Park,ALPHA PARK,Park,150.90461731176953,-33.77175608999512,0101000020E6100000422E01A0F2DC62404A824FE7C8E240C0
Blacktown (East) - Kings Park,BILLY GOAT HILL RESERVE,Park,150.91648037717334,-33.766821723829906,0101000020E610000054ECA7CE53DD62401CDBD83627E240C0
Blacktown (East) - Kings Park,Park,Park,150.8979915771857,-33.752399012053544,0101000020E61000001303D558BCDC624006285F9C4EE040C0
Blacktown (East) - Kings Park,Park,Park,150.90086384239038,-33.75185202112255,0101000020E6100000E6A668E0D3DC62409113E1AF3CE040C0
Blacktown (East) - Kings Park,Park,Park,150.90001580491435,-33.749390700627664,0101000020E6100000B0FFF1EDCCDC6240A98FD308ECDF40C0
Blacktown (East) - Kings Park,Park,Park,150.9173863038829,-33.75420378363403,0101000020E6100000369F853A5BDD6240239DE4BF89E040C0
Blacktown (East) - Kings Park,KINGSFORD RESERVE,Park,150.92470163738102,-33.75169324226197,0101000020E61000007E63E32797DD6240D711F27B37E040C0
Blacktown (East) - Kings Park,Park,Park,150.92348219594246,-33.7706660786703,0101000020E61000005BC0882A8DDD62404403A22FA5E240C0
Blacktown (East) - Kings Park,Park,Park,150.92250085476644,-33.76812051455487,0101000020E61000002038832085DD62402FB3E4C551E240C0
Blacktown (East) - Kings Park,CHRISTIES CORNER,Park,150.9223682149215,-33.76493854417608,0101000020E6100000A6BE580A84DD6240D3579781E9E140C0
Blacktown (East) - Kings Park,Park,Park,150.92289877519968,-33.7756246479634,0101000020E61000000920036388DD6240B67C20AB47E340C0
Blacktown (East) - Kings Park,Park,Park,150.9277237802026,-33.7780636929573,0101000020E610000022F6C7E9AFDD624072BA519797E340C0
Blacktown (East) - Kings Park,PATRICIAN BROTHERS COLLEGE BLACKTOWN,High School,150.90873548098443,-33.77408520972092,0101000020E610000060716E5C14DD6240CA08623915E340C0
Blacktown (East) - Kings Park,MITCHELL RESERVE,Park,150.91745319333722,-33.782606700771396,0101000020E6100000D09FCCC65BDD6240C8B8D4742CE440C0
Blacktown (East) - Kings Park,BLACKTOWN HOSPITAL,General Hospital,150.91693003697367,-33.775523363467826,0101000020E6100000B430A97D57DD62406AB07D5944E340C0
Blacktown (East) - Kings Park,MARAYONG OVAL,Sports Field,150.89666375221148,-33.75014611254895,0101000020E610000039682E78B1DC6240444FAEC904E040C0
Blacktown (East) - Kings Park,CAMPBELL PARK,Park,150.89720193110156,-33.76201912807473,0101000020E6100000A8FFD2E0B5DC6240F300C1D789E140C0
Blacktown (East) - Kings Park,JEHOVAHS WITNESSES CHURCH,Place Of Worship,150.9013071654746,-33.76842840927299,0101000020E6100000A5EB1F82D7DC62408992B3DC5BE240C0
Blacktown (East) - Kings Park,ORTHODOX CHURCH,Place Of Worship,150.90186840860963,-33.77470942507666,0101000020E6100000C408231BDCDC6240B94DAEAD29E340C0
Blacktown (East) - Kings Park,SEVENTH DAY ADVENTIST CHURCH,Place Of Worship,150.90717119427455,-33.77367188048387,0101000020E61000000A69E28B07DD6240AB4120AE07E340C0
Blacktown (East) - Kings Park,FRANCIS PARK,Park,150.90300931752952,-33.76664663919427,0101000020E6100000B9D8CB73E5DC6240BF76217A21E240C0
Blacktown (East) - Kings Park,BLACKTOWN SHOWGROUND,Showground,150.90066275361568,-33.76545339054471,0101000020E610000026F0B13AD2DC62403C806F60FAE140C0
Blacktown (East) - Kings Park,ORANA PARK,Park,150.92133781405298,-33.77841916811887,0101000020E61000009F7D70997BDD624036D3423DA3E340C0
Blacktown (East) - Kings Park,TENNIS COURTS,Sports Court,150.921540194605,-33.77892477259658,0101000020E6100000E5B8DC417DDD62405C2C94CEB3E340C0
Blacktown (East) - Kings Park,SALVATION ARMY CHURCH,Place Of Worship,150.91410000157055,-33.77512841977,0101000020E61000009C80A54E40DD6240608E766837E340C0
Blacktown (East) - Kings Park,CATHOLIC CHURCH,Place Of Worship,150.92560866722172,-33.76054374672767,0101000020E6100000915311969EDD6240B3AF5B7F59E140C0
Blacktown (East) - Kings Park,CAVANAGH RESERVE,Park,150.9241706647762,-33.7595470238463,0101000020E61000005DA45BCE92DD6240D5983DD638E140C0
Blacktown (East) - Kings Park,FRED VASSEL FIELDS,Sports Field,150.9242504351734,-33.74884551077904,0101000020E6100000460CA67593DD6240B546712BDADF40C0
Blacktown (East) - Kings Park,TUABILLI PARK,Park,150.89453023544533,-33.77387506678535,0101000020E6100000AB50DFFD9FDC6240368493560EE340C0
Blacktown (East) - Kings Park,WHEELER PARK,Park,150.92639331058814,-33.764700308327036,0101000020E6100000B2869503A5DD6240BCC01FB3E1E140C0
Blacktown (East) - Kings Park,BAPTIST CHURCH,Place Of Worship,150.91650516259034,-33.764438739669394,0101000020E61000001A7EA20254DD62407756ED20D9E140C0
Blacktown (East) - Kings Park,MAURICE BOLTON RESERVE,Park,150.91696046111568,-33.773793262005924,0101000020E6100000F10677BD57DD62401E1759A80BE340C0
Blacktown (East) - Kings Park,MARAYONG HEIGHTS RESERVE,Park,150.8947863451328,-33.743974681710725,0101000020E61000001628F916A2DC6240F27FF78F3ADF40C0
Blacktown (East) - Kings Park,Park,Park,150.8981616327606,-33.74262075314101,0101000020E610000052E776BDBDDC6240280964320EDF40C0
Blacktown (East) - Kings Park,FAULKLAND CRESCENT RESERVE,Park,150.90959175601154,-33.740362852514345,0101000020E6100000FC982B601BDD6240775CBF35C4DE40C0
Blacktown (East) - Kings Park,MARAYONG POST OFFICE,Post Office,150.89980980415174,-33.74663657160806,0101000020E6100000762EEE3DCBDC6240EF8684C991DF40C0
Blacktown (East) - Kings Park,Parking Area,Parking Area,150.89465391998525,-33.77784148448491,0101000020E610000065F24101A1DC6240DAAA4C4F90E340C0
Blacktown (East) - Kings Park,Park,Park,150.91790492375426,-33.779994713146095,0101000020E6100000958B257A5FDD6240F801E4DDD6E340C0
Blacktown (East) - Kings Park,Parking Area,Parking Area,150.90844354199177,-33.765637474145116,0101000020E6100000BFE330F811DD6240CD05A46800E240C0
Blacktown (East) - Kings Park,Parking Area,Parking Area,150.9082987111101,-33.76667506375597,0101000020E6100000F06675C810DD6240CCBE926822E240C0
Blacktown (East) - Kings Park,Parking Area,Parking Area,150.9097502215226,-33.768471902880414,0101000020E6100000FC1E7FAC1CDD624015628D495DE240C0
Blacktown (East) - Kings Park,Parking Area,Parking Area,150.90666578772263,-33.76742115378808,0101000020E61000007755F86703DD6240A2E33ADB3AE240C0
Blacktown (East) - Kings Park,Parking Area,Parking Area,150.9096811356874,-33.76798173433015,0101000020E610000019F29C1B1CDD6240CA6FB8394DE240C0
Blacktown (East) - Kings Park,Parking Area,Parking Area,150.90494692610517,-33.770684840555965,0101000020E610000099874153F5DC6240FDDA04CDA5E240C0
Blacktown (East) - Kings Park,Parking Area,Parking Area,150.90533571246857,-33.7693573200361,0101000020E6100000829E9982F8DC6240233FF84C7AE240C0
Blacktown (East) - Kings Park,Parking Area,Parking Area,150.9075767432011,-33.77082544965045,0101000020E610000016D561DE0ADD62402B968868AAE240C0
Blacktown (East) - Kings Park,Parking Area,Parking Area,150.91101900113154,-33.77018313549165,0101000020E6100000A0FC511127DD6240066F695C95E240C0
Blacktown (East) - Kings Park,Parking Area,Parking Area,150.9128382764315,-33.771029756836505,0101000020E6100000EEF99DF835DD624085ED621AB1E240C0
Blacktown (East) - Kings Park,Parking Area,Parking Area,150.91798804666414,-33.77109625164548,0101000020E610000053D1772860DD624059712F48B3E240C0
Blacktown (East) - Kings Park,Parking Area,Parking Area,150.91417256478428,-33.77231724403965,0101000020E6100000C494D2E640DD6240C1A49C4ADBE240C0
Blacktown (East) - Kings Park,Parking Area,Parking Area,150.9147049172014,-33.77241550733653,0101000020E6100000DA1B3F4345DD62408277E782DEE240C0
Blacktown (East) - Kings Park,Parking Area,Parking Area,150.91493608965666,-33.77302643799392,0101000020E61000002DE00C2847DD62404A10C387F2E240C0
Blacktown (East) - Kings Park,Park,Park,150.91511834525136,-33.770360443427215,0101000020E6100000609A44A648DD62407353C72B9BE240C0
Blacktown (East) - Kings Park,BOWLING GREENS,Sports Field,150.91363139180933,-33.77514277139866,0101000020E6100000718DE6773CDD6240AC71DAE037E340C0
Blacktown (East) - Kings Park,Park,Park,150.9254178057666,-33.749872039311036,0101000020E6100000EB5CCD059DDD62404B8396CEFBDF40C0
Blacktown (East) - Kings Park,MARAYONG PARK,Park,150.89709765376503,-33.749389642978784,0101000020E6100000A7872306B5DC62400A47F4FFEBDF40C0
Blacktown (East) - Kings Park,TENNIS COURTS,Sports Court,150.89709579784568,-33.750609523984224,0101000020E61000000A243F02B5DC624008CA0EF913E040C0
Blacktown (East) - Kings Park,Parking Area,Parking Area,150.91295090001535,-33.76239810706854,0101000020E61000006E4DCEE436DD62402332DC4296E140C0
Blacktown (East) - Kings Park,BAPTIST CHURCH,Place Of Worship,150.9259841234846,-33.75302727968843,0101000020E610000069DF74A9A1DD6240FBA0A93263E040C0
Blacktown (East) - Kings Park,Sports Field,Sports Field,150.92674458240694,-33.75381039080584,0101000020E6100000DB2541E4A7DD6240B2F2DFDB7CE040C0
Blacktown (East) - Kings Park,COPTIC CHURCH,Place Of Worship,150.9088647054346,-33.7623318631609,0101000020E6100000924A6F6B15DD6240C77C2A1794E140C0
Blacktown (East) - Kings Park,FOURSQUARE GOSPEL CHURCH,Place Of Worship,150.91752935969353,-33.76643998339341,0101000020E61000001D2088665CDD6240C08293B41AE240C0
Blacktown (East) - Kings Park,Parking Area,Parking Area,150.89824283776736,-33.774543224462896,0101000020E61000007782C367BEDC624009347D3B24E340C0
Blacktown (East) - Kings Park,UNITING CHURCH,Place Of Worship,150.91603822010228,-33.77843361850387,0101000020E610000036A7622F50DD624060CA7AB6A3E340C0
Blacktown (East) - Kings Park,Parking Area,Parking Area,150.9165790256663,-33.777331434578414,0101000020E6100000F66D899D54DD624062D5B0987FE340C0
Blacktown (East) - Kings Park,Parking Area,Parking Area,150.91485906181595,-33.774507377244085,0101000020E61000005CDE828646DD624015E3C70E23E340C0
Blacktown (East) - Kings Park,Parking Area,Parking Area,150.91517543678094,-33.77688885608308,0101000020E61000007462FF1D49DD624079C0121871E340C0
Blacktown (East) - Kings Park,Parking Area,Parking Area,150.91672670780065,-33.77763856743595,0101000020E6100000F4AB3FD355DD6240739F1BA989E340C0
Blacktown (East) - Kings Park,Swimming Pool Facility,Swimming Pool Facility,150.9175015990563,-33.77196902940663,0101000020E61000002F3F502C5CDD6240C56993E1CFE240C0
Blacktown (East) - Kings Park,Swimming Pool Facility,Swimming Pool Facility,150.9176572492473,-33.77231731572546,0101000020E61000008B4EBC725DDD62407296364BDBE240C0
Blacktown (East) - Kings Park,NETBALL COURTS,Sports Court,150.91863248547256,-33.772135230533785,0101000020E6100000BB44F46F65DD6240B39DC553D5E240C0
Blacktown (East) - Kings Park,Parking Area,Parking Area,150.91915995285115,-33.77310147597724,0101000020E61000003C2922C269DD6240E2E739FDF4E240C0
Blacktown (East) - Kings Park,Park,Park,150.8998475423768,-33.7802364717645,0101000020E61000009EBC128DCBDC6240FFAFE8C9DEE340C0
Blacktown (East) - Kings Park,Park,Park,150.91512110667256,-33.75906552364052,0101000020E610000037210FAC48DD624051C71F0F29E140C0
Blacktown (East) - Kings Park,Park,Park,150.91722154567324,-33.75958616938736,0101000020E61000004DBBFFE059DD62409E019E1E3AE140C0
Blacktown (East) - Kings Park,TENNIS COURTS,Sports Court,150.92584912556205,-33.75967821193668,0101000020E6100000376A588EA0DD62403BE0B9223DE140C0
Blacktown (East) - Kings Park,Sports Field,Sports Field,150.9215201864287,-33.757631197637515,0101000020E610000015EAE6177DDD62402724200FFAE040C0
Blacktown (East) - Kings Park,Sports Field,Sports Field,150.9200680489921,-33.756444007519235,0101000020E610000080908C3271DD624070C64028D3E040C0
Blacktown (East) - Kings Park,LEICESTER SQUARE,Shopping Centre,150.8943759111678,-33.77790816814349,0101000020E610000078193BBA9EDC6240D9BBAE7E92E340C0
Blacktown (East) - Kings Park,WESTPOINT CENTRE,Shopping Centre,150.9051918131398,-33.77004332436264,0101000020E61000005B41D254F7DC6240015297C790E240C0
Blacktown (East) - Kings Park,LYNWOOD PARK,Park,150.91869006119407,-33.75546213860484,0101000020E6100000A4FFB2E865DD62404656BDFBB2E040C0
Blacktown (East) - Kings Park,Sports Field,Sports Field,150.91921846102397,-33.755930748653235,0101000020E6100000477FD53C6ADD6240D3C0B956C2E040C0
Blacktown (East) - Kings Park,Parking Area,Parking Area,150.9031467894124,-33.765394846140104,0101000020E610000070801894E6DC62406F595475F8E140C0
Blacktown (East) - Kings Park,Park,Park,150.89666532066994,-33.74004712321089,0101000020E61000008377787BB1DC624047D837DDB9DE40C0
Blacktown (East) - Kings Park,ADVENTIST NURSING HOME,Nursing Home,150.91833780392338,-33.74214966952512,0101000020E61000000151F60563DD62407EACA7C2FEDE40C0
Blacktown (East) - Kings Park,ALLEN ROBERTSON RESERVE,Park,150.91942640753751,-33.74687067474458,0101000020E61000007AEEEDF06BDD6240492F517599DF40C0
Blacktown (East) - Kings Park,MORGAN POWER RESERVE,Park,150.92311374923366,-33.748023263268564,0101000020E61000004A6ED8258ADD62405E31EE39BFDF40C0
Blacktown (East) - Kings Park,KINGS LANGLEY SHOPPING CENTRE,Shopping Centre,150.92343579795795,-33.74326245739413,0101000020E6100000EC053BC98CDD62401B6D653923DF40C0
Blacktown (East) - Kings Park,TWIN WILLOW RESERVE,Park,150.9196722351083,-33.74280911370425,0101000020E61000008A9A77F46DDD6240E743795E14DF40C0
Blacktown (East) - Kings Park,GOLDEN GROVE PARK,Park,150.9233980148172,-33.74426042655807,0101000020E6100000995AFE798CDD624010E3F7EC43DF40C0
Blacktown (East) - Kings Park,RESOLUTION RESERVE,Park,150.92711846122816,-33.74534913784518,0101000020E6100000C5CF55F4AADD6240CC92BD9967DF40C0
Blacktown (East) - Kings Park,Park,Park,150.90895692648172,-33.74606462471826,0101000020E6100000C616D62C16DD624008EFAD0B7FDF40C0
Blacktown (East) - Kings Park,Sports Field,Sports Field,150.90233778104053,-33.766601657827,0101000020E610000075707BF3DFDC624093B6CC0020E240C0
Blacktown (East) - Kings Park,Park,Park,150.90529234450156,-33.76765678108034,0101000020E6100000829EA627F8DC624077A5D09342E240C0
Blacktown (East) - Kings Park,CENTRAL PLAZA,Shopping Centre,150.90681738651165,-33.77022263983989,0101000020E61000006050E5A504DD62402560CCA796E240C0
Blacktown (East) - Kings Park,Parking Area,Parking Area,150.91069506953846,-33.77291538330077,0101000020E61000007A89FC6924DD624012ED2AE4EEE240C0
Blacktown (East) - Kings Park,Parking Area,Parking Area,150.91197344045975,-33.77303239010863,0101000020E61000000CB3ECE22EDD6240F521B1B9F2E240C0
Blacktown (East) - Kings Park,BLACKTOWN WORKERS CLUB,Club,150.90867104752402,-33.77307349037901,0101000020E610000002FE4DD513DD62408D4A7712F4E240C0
Blacktown (East) - Kings Park,BLACKTOWN WESTPOINT POST OFFICE,Post Office,150.90453863552034,-33.77017756924674,0101000020E6100000E83002FBF1DC62408603B82D95E240C0
Blacktown (East) - Kings Park,BOWLING GREEN,Sports Field,150.90712994273835,-33.76556324362209,0101000020E610000013A95F3507DD62403330F3F9FDE140C0
Blacktown (East) - Kings Park,BOWLING GREEN,Sports Field,150.9077128164071,-33.76550743402567,0101000020E61000001D94BFFB0BDD624019FEC825FCE140C0
Blacktown (East) - Kings Park,BOWLING GREEN,Sports Field,150.90780753836393,-33.76587434749609,0101000020E6100000BB0A65C20CDD6240A7ABAD2B08E240C0
Blacktown (East) - Kings Park,BLACKTOWN LIBRARY,Library,150.90812200351058,-33.77148800446602,0101000020E6100000643BE0550FDD62400C38721EC0E240C0
Blacktown (East) - Kings Park,BLACKTOWN NURSING HOME,Nursing Home,150.91863128442503,-33.765838473500004,0101000020E610000004766F6D65DD6240BDD9BEFE06E240C0
Blacktown (East) - Kings Park,Parking Area,Parking Area,150.9095738912155,-33.773303030557514,0101000020E61000001D82B43A1BDD62403412FD97FBE240C0
Blacktown (East) - Kings Park,Parking Area,Parking Area,150.91011680332878,-33.77289425554037,0101000020E6100000CA3A46AD1FDD6240F567EF32EEE240C0
Blacktown (East) - Kings Park,BLACKTOWN POST OFFICE,Post Office,150.90752833748203,-33.76928384247616,0101000020E6100000B735DE780ADD62405F6398E477E240C0
Blacktown (East) - Kings Park,MARAYONG,Suburb,150.89416009451398,-33.745202630761675,0101000020E61000006D6AA1F59CDC6240DD01C0CC62DF40C0
Blacktown (East) - Kings Park,KINGS PARK,Suburb,150.9093996216436,-33.74390134747348,0101000020E6100000873E3CCD19DD6240AA6CCB2838DF40C0
Blacktown (East) - Kings Park,PEARCES CORNER,Urban Place,150.91829905239862,-33.737620976961914,0101000020E6100000FFBFB1B462DD62408F723A5D6ADE40C0
Blacktown (East) - Kings Park,ACACIA GARDENS,Suburb,150.91224491493185,-33.73461466398759,0101000020E610000063723F1C31DD62408F7E72DA07DE40C0
Blacktown (East) - Kings Park,BLACKTOWN,Suburb,150.90603561056767,-33.77147588496203,0101000020E6100000C98C643EFEDC624044C8C7B8BFE240C0
Blacktown (East) - Kings Park,BLACKTOWN INDUSTRIAL AREA,Urban Place,150.90947370031523,-33.75725637773527,0101000020E6100000A2ED96681ADD6240BB87E8C6EDE040C0
Blacktown (East) - Kings Park,JIM SOUTHEE COMMUNITY CENTRE,Community Facility,150.92465155540566,-33.74336697783603,0101000020E610000036D5DBBE96DD6240B65D2DA626DF40C0
Blacktown (East) - Kings Park,Sports Field,Sports Field,150.89649155415466,-33.7488716952203,0101000020E610000081470E0FB0DC624086EF1707DBDF40C0
Blacktown (East) - Kings Park,Sports Field,Sports Field,150.92008015019732,-33.74709529400137,0101000020E61000007B59ED4B71DD62409E5D8FD1A0DF40C0
Blacktown (East) - Kings Park,Sports Field,Sports Field,150.92204332482598,-33.747545760965544,0101000020E6100000EDB3006181DD624023CE5994AFDF40C0
Blacktown (East) - Kings Park,Sports Field,Sports Field,150.92289415875746,-33.74451724480695,0101000020E61000000CB1545988DD62407FE050574CDF40C0
Blacktown (East) - Kings Park,KINGS LANGLEY POST OFFICE,Post Office,150.92352146669336,-33.74312066543016,0101000020E61000004313E47C8DDD62408D80F5931EDF40C0
Blacktown (East) - Kings Park,CATHOLIC CHURCH,Place Of Worship,150.90214043015578,-33.74712315437905,0101000020E6100000647D9B55DEDC6240391245BBA1DF40C0
Blacktown (East) - Kings Park,SIKH TEMPLE,Place Of Worship,150.91991675473196,-33.738004106708075,0101000020E6100000B81343F56FDD6240FC4F27EB76DE40C0
Blacktown (East) - Kings Park,FITZSIMMONS WALKWAY,Park,150.8973651567853,-33.77420509424861,0101000020E6100000CF1E2237B7DC6240E1180C2719E340C0
Blacktown (East) - Kings Park,GRIBBLE RESERVE,Park,150.90325188241914,-33.76824718504884,0101000020E61000004DE17D70E7DC6240B1837BEC55E240C0
Blacktown (East) - Kings Park,BILL SWIFT RESERVE,Park,150.91497597934682,-33.763503025225916,0101000020E6100000727DB47B47DD624006DF9577BAE140C0
Blacktown (East) - Kings Park,MUJAR BIJA RESERVE,Park,150.9171446885125,-33.7794207585322,0101000020E6100000905BD13F59DD624012DC350FC4E340C0
Blacktown (East) - Kings Park,OLGA ROBSHAW RESERVE,Park,150.89965222617613,-33.755798314274486,0101000020E6100000672677F3C9DC62402617C9FFBDE040C0
Blacktown (East) - Kings Park,ANGLICAN CHURCH,Place Of Worship,150.90514568464997,-33.76620058300644,0101000020E6100000FD3515F4F6DC62402A1857DC12E240C0
Blacktown (East) - Kings Park,CATHOLIC CHURCH,Place Of Worship,150.89882949424174,-33.77410752968641,0101000020E61000005A4E1236C3DC624095CB9DF415E340C0
Blacktown (East) - Kings Park,ORTHODOX CHURCH,Place Of Worship,150.90920030793993,-33.76615862213457,0101000020E6100000AF833E2B18DD6240E6CE587C11E240C0
Blacktown (East) - Kings Park,OVAL,Sports Field,150.90377002798004,-33.76681178275651,0101000020E6100000F0281FAFEBDC6240379074E326E240C0
Blacktown (East) - Kings Park,BLACKTOWN CITY COUNCIL,Local Government Chambers,150.90855549273746,-33.77161397477289,0101000020E610000013FDF7E212DD6240A064293FC4E240C0
Blacktown (East) - Kings Park,EUROKA HOMES RETIREMENT VILLAGE,Retirement Village,150.91341407766402,-33.7651749870677,0101000020E6100000BCE828B03ADD624025960441F1E140C0
Blacktown (East) - Kings Park,UNITING MULLAUNA BLACKTOWN,Nursing Home,150.91541226502915,-33.77786720235475,0101000020E61000000A95A90E4BDD6240515F092791E340C0
Blacktown (East) - Kings Park,BLACKTOWN BUS INTERCHANGE,Bus Interchange,150.9068421270129,-33.76793301535506,0101000020E6100000FAC4C7D904DD6240FD3B09A14BE240C0
Blacktown (East) - Kings Park,BLACKTOWN VISITOR INFORMATION AND HERITAGE CENTRE,Tourist Information Centre,150.9082932161155,-33.77083049612201,0101000020E6100000A24CEFBC10DD62403FCDDD92AAE240C0
Blacktown (East) - Kings Park,BLACKTOWN COURT HOUSE,Court House,150.90596133516505,-33.768830049416856,0101000020E61000002E3FA0A2FDDC6240B736E70569E240C0
Blacktown (East) - Kings Park,SEVEN HILLS WEST PUBLIC SCHOOL,Primary School,150.9213841042396,-33.76562145559201,0101000020E61000006D5884FA7BDD62401A7144E2FFE140C0
Blacktown (East) - Kings Park,ST BERNADETTE'S PRIMARY SCHOOL,Primary School,150.92634751357667,-33.7614343719845,0101000020E61000005E718AA3A4DD6240A3DC76AE76E140C0
Blacktown (East) - Kings Park,LYNWOOD PARK PUBLIC SCHOOL,Primary School,150.92626872952954,-33.75373713668078,0101000020E6100000619451FEA3DD62408EE95F757AE040C0
Blacktown (East) - Kings Park,BERT OLDFIELD PUBLIC SCHOOL,Primary School,150.92563365835292,-33.777234650128676,0101000020E61000007C567ACA9EDD624072CFCD6C7CE340C0
Blacktown (East) - Kings Park,KINGS LANGLEY PUBLIC SCHOOL,Primary School,150.92478571070848,-33.74514150521079,0101000020E6100000A2E933D897DD6240E3E2FDCB60DF40C0
Blacktown (East) - Kings Park,ST PATRICK'S PRIMARY SCHOOL,Primary School,150.898331778167,-33.77383136758736,0101000020E6100000EA054922BFDC62400E3400E80CE340C0
Blacktown (East) - Kings Park,BLACKTOWN NORTH PUBLIC SCHOOL,Primary School,150.9127887774627,-33.75807062082528,0101000020E6100000766BCF9035DD62406240467508E140C0
Blacktown (East) - Kings Park,MARAYONG HEIGHTS PUBLIC SCHOOL,Primary School,150.8971334821718,-33.74212257991998,0101000020E610000062C24651B5DC6240923069DFFDDE40C0
Blacktown (East) - Kings Park,MARAYONG PUBLIC SCHOOL,Primary School,150.8950451803089,-33.75695225635433,0101000020E6100000D03BCA35A4DC62406FD6C0CFE3E040C0
Blacktown (East) - Kings Park,BLACKTOWN SOUTH PUBLIC SCHOOL,Primary School,150.9057079680341,-33.78047659900319,0101000020E6100000DCCD468FFBDC624089013EA8E6E340C0
Blacktown (East) - Kings Park,BLACKTOWN BOYS HIGH SCHOOL,High School,150.91194601938568,-33.76183107258832,0101000020E6100000531F6BA92EDD6240F6EB3AAE83E140C0
Blacktown (East) - Kings Park,BLACKTOWN GIRLS HIGH SCHOOL,High School,150.91088230898637,-33.76164068660955,0101000020E61000003FF3A7F225DD6240402528717DE140C0
Blacktown (East) - Kings Park,COREEN SCHOOL,Special School,150.91170825060132,-33.773675206355136,0101000020E61000006FFAC7B62CDD6240BC8206CA07E340C0
Blacktown (East) - Kings Park,HOLY CROSS PRIMARY SCHOOL,Primary School,150.92383276797364,-33.73741336222435,0101000020E610000070ADBC0990DD62408931A18F63DE40C0
Blacktown (East) - Kings Park,CADDIES CREEK PUBLIC SCHOOL,Primary School,150.92695808679716,-33.73626008353964,0101000020E6100000CF7101A4A9DD624095133AC53DDE40C0
Blacktown (East) - Kings Park,MULLAUNA VILLAGE,Retirement Village,150.91661549996178,-33.7781007677183,0101000020E6100000F66A07EA54DD6240DA2B53CE98E340C0
Blacktown (East) - Kings Park,ERNIE IRELAND RESERVE,Park,150.9236507540257,-33.735256171893596,0101000020E6100000EAAE068C8EDD62408A3BCEDF1CDE40C0
Blacktown (East) - Kings Park,Park,Park,150.91381485743474,-33.73486446341158,0101000020E6100000FFE8A7F83DDD624034ACEA0910DE40C0
Blacktown (East) - Kings Park,METS68N1,Roadside Emergency Telephone,150.90177403609744,-33.735628266364024,0101000020E6100000742D3955DBDC6240F905291129DE40C0
Blacktown (East) - Kings Park,METS68S1,Roadside Emergency Telephone,150.9017039558272,-33.73601217595843,0101000020E6100000741E41C2DADC62408199A0A535DE40C0
Blacktown (East) - Kings Park,METS68N2,Roadside Emergency Telephone,150.90646656295215,-33.7362799832294,0101000020E610000081592AC601DD6240B955286C3EDE40C0
Blacktown (East) - Kings Park,METS68S2,Roadside Emergency Telephone,150.90606284299545,-33.736636956195056,0101000020E610000029D98077FEDC6240FEF0A91E4ADE40C0
Blacktown (East) - Kings Park,METS70N1,Roadside Emergency Telephone,150.91607297322574,-33.737848223087006,0101000020E61000002198447850DD624003C981CF71DE40C0
Blacktown (East) - Kings Park,METS70S1,Roadside Emergency Telephone,150.91588134999915,-33.73826987959086,0101000020E610000068A867E64EDD6240783B9EA07FDE40C0
Blacktown (East) - Kings Park,METS72S1,Roadside Emergency Telephone,150.92708602036834,-33.741205950485785,0101000020E6100000F2414DB0AADD6240F1772AD6DFDE40C0
Blacktown (East) - Kings Park,BLACKTOWN COMMUNITY HEALTH CENTRE,Community Medical Centre,150.9147694404933,-33.773987152938425,0101000020E610000091C98FCA45DD624085B2D20212E340C0
Blacktown (East) - Kings Park,BLACKTOWN CITY BOWLING AND REC CLUB,Club,150.91317324203126,-33.77559663556154,0101000020E6100000694317B738DD6240EE4F24C046E340C0
Blacktown (East) - Kings Park,BLACKTOWN RSL CLUB (CITY OF),Club,150.90727696101771,-33.76608136162264,0101000020E6100000887FB16908DD6240481F3DF40EE240C0
Blacktown (East) - Kings Park,BLACKTOWN TRANSITIONAL AGED CARE SERVICE,Nursing Home,150.91755665500347,-33.77561002760391,0101000020E6100000F22EC69F5CDD624015817B3047E340C0
Blacktown (East) - Kings Park,MARAYONG PUBLIC SCHOOL PRESCHOOL,Preschool,150.89565907819434,-33.7576518145779,0101000020E6100000BA263A3DA9DC6240FEAE12BCFAE040C0
Blacktown (East) - Kings Park,SEVEN HILLS WEST PUBLIC SCHOOL PRESCHOOL,Preschool,150.9220654027207,-33.76570984958991,0101000020E6100000ACAE4D8F81DD62405C1BC5C702E240C0
Blacktown (East) - Kings Park,ASPECT WESTERN SYDNEY SCHOOL BLACKTOWN,Special School,150.89846930394873,-33.773971224058336,0101000020E61000006E9DB242C0DC624015B0337D11E340C0
Blacktown (East) - Kings Park,KINGS LANGLEY VILLAGE,Retirement Village,150.919341160112,-33.74193487445519,0101000020E61000008711273E6BDD624001C6D2B8F7DE40C0
Blacktown (East) - Kings Park,DR KRIVANEK WALKWAY,Park,150.89944106189725,-33.77053863812647,0101000020E6100000E7309F38C8DC62405E879502A1E240C0
Blacktown (East) - Kings Park,BLACKTOWN ARTS CENTRE,Art Gallery,150.90849205461038,-33.77264530764456,0101000020E610000047E7ED5D12DD6240E1DE9B0AE6E240C0
Blacktown (East) - Kings Park,BLACKTOWN SENIOR CITIZENS CENTRE,Community Facility,150.90275909719702,-33.76850454976816,0101000020E610000016D40B67E3DC62406D0A6A5B5EE240C0
Blacktown (East) - Kings Park,WARAKIRRI COLLEGE BLACKTOWN,High School,150.91223837070498,-33.77072299157766,0101000020E6100000B20A860E31DD6240F88C0D0DA7E240C0
Blacktown (East) - Kings Park,WAYNE GAME RESERVE,Park,150.90277555433303,-33.7585498084053,0101000020E6100000A32F8F89E3DC624071BEFD2818E140C0
Blacktown (East) - Kings Park,UNITINGCARE CUMBERLAND PROSPECT DISABILITY AGED CARE PILOT,Nursing Home,150.90756426470347,-33.7729468292601,0101000020E61000006E7D36C40ADD6240099CF4EBEFE240C0
Blacktown (East) - Kings Park,BLACKTOWN TERRACE CARE COMMUNITY,Nursing Home,150.90234828683776,-33.76811083350605,0101000020E61000003CB28309E0DC62404FCEAE7451E240C0
Blacktown (East) - Kings Park,METWEST EYE CENTRE,General Hospital,150.91246083040028,-33.774233178043026,0101000020E6100000682E0EE132DD62402396A1121AE340C0
Blacktown (East) - Kings Park,BERYL SIMES SMITH PARK,Park,150.91083119664336,-33.764032402484716,0101000020E61000005038778725DD6240CAE052D0CBE140C0
Blacktown (East) - Kings Park,MARAYONG RAILWAY STATION,Railway Station,150.90012432319728,-33.746248520640655,0101000020E6100000ED4E86D1CDDC6240856B4F1285DF40C0
Blacktown (East) - Kings Park,BLACKTOWN RAILWAY STATION,Railway Station,150.90725022984984,-33.76857088299641,0101000020E6100000CB4FA23108DD62404F90DB8760E240C0
Blacktown (East) - Kings Park,BLACKTOWN POLICE STATION,Police Station,150.90520600292808,-33.76857699672078,0101000020E610000002579472F7DC6240D4AF24BB60E240C0
Blacktown (East) - Kings Park,BLACKTOWN SUPERSTATION AMBULANCE STATION,Ambulance Station,150.9190090619346,-33.77924990561729,0101000020E61000009337B18568DD6240C804FE75BEE340C0
Blacktown (East) - Kings Park,JOHN KINSELA PARK,Park,150.90304141702953,-33.769209450078954,0101000020E610000069221DB7E5DC62407FEE8B7475E240C0
Blacktown (East) - Kings Park,BLACKTOWN TAFE COLLEGE,Technical College,150.91314499720212,-33.77158330044711,0101000020E6100000A76FDB7B38DD6240B1C7D83DC3E240C0
Blacktown (East) - Kings Park,BLACKTOWN TAFE COLLEGE,Technical College,150.9116065720909,-33.77262472642004,0101000020E61000005FBE8BE12BDD62400B07F65DE5E240C0
Blacktown (East) - Kings Park,HEADINGLEY RESERVE,Park,150.91796174668758,-33.75192774836711,0101000020E6100000122050F15FDD62408818202B3FE040C0
Blacktown (North) - Marayong,JOSEPH FRANK PARK,Park,150.89744757990758,-33.76739592042338,0101000020E61000007AB2FCE3B7DC6240B0A68E073AE240C0
Blacktown (North) - Marayong,Park,Park,150.8979915771857,-33.752399012053544,0101000020E61000001303D558BCDC624006285F9C4EE040C0
Blacktown (North) - Marayong,Park,Park,150.90086384239038,-33.75185202112255,0101000020E6100000E6A668E0D3DC62409113E1AF3CE040C0
Blacktown (North) - Marayong,Park,Park,150.90001580491435,-33.749390700627664,0101000020E6100000B0FFF1EDCCDC6240A98FD308ECDF40C0
Blacktown (North) - Marayong,ST ANDREWS COLLEGE SENIOR CAMPUS,High School,150.8892071730079,-33.749326015963575,0101000020E610000000EE996274DC6240824D36EAE9DF40C0
Blacktown (North) - Marayong,Park,Park,150.89001152900488,-33.76730996487859,0101000020E6100000724475F97ADC62403486823637E240C0
Blacktown (North) - Marayong,MARAYONG OVAL,Sports Field,150.89666375221148,-33.75014611254895,0101000020E610000039682E78B1DC6240444FAEC904E040C0
Blacktown (North) - Marayong,CAMPBELL PARK,Park,150.89720193110156,-33.76201912807473,0101000020E6100000A8FFD2E0B5DC6240F300C1D789E140C0
Blacktown (North) - Marayong,CHRISTADELPHIAN CHURCH,Place Of Worship,150.86599520732616,-33.76387387395756,0101000020E6100000ADBE943BB6DB624051757D9EC6E140C0
Blacktown (North) - Marayong,DOONSIDE POST OFFICE,Post Office,150.8698090937981,-33.762539540799075,0101000020E61000000A74E179D5DB6240C7D14AE59AE140C0
Blacktown (North) - Marayong,UNITING CHURCH,Place Of Worship,150.87288958309568,-33.75664035455926,0101000020E6100000488D22B6EEDB62403BD55497D9E040C0
Blacktown (North) - Marayong,ASSEMBLIES OF GOD CHURCH,Place Of Worship,150.87373864285448,-33.75670134569364,0101000020E6100000F709BEAAF5DB6240F44BF696DBE040C0
Blacktown (North) - Marayong,CATHOLIC CHURCH,Place Of Worship,150.87183290021687,-33.75839910567443,0101000020E610000044401C0EE6DB6240FA17CE3813E140C0
Blacktown (North) - Marayong,CHURCH OF CHRIST,Place Of Worship,150.87024443804606,-33.765472447805806,0101000020E6100000E11DDD0AD9DB624052A84C00FBE140C0
Blacktown (North) - Marayong,ANGLICAN CHURCH,Place Of Worship,150.8706674214757,-33.75841302693291,0101000020E6100000C99DEC81DCDB6240C3C495AD13E140C0
Blacktown (North) - Marayong,FRANCIS PARK,Park,150.90300931752952,-33.76664663919427,0101000020E6100000B9D8CB73E5DC6240BF76217A21E240C0
Blacktown (North) - Marayong,BLACKTOWN SHOWGROUND,Showground,150.90066275361568,-33.76545339054471,0101000020E610000026F0B13AD2DC62403C806F60FAE140C0
Blacktown (North) - Marayong,BILL COLBOURNE RESERVE,Park,150.87363899902817,-33.74929662360538,0101000020E6100000C22AC6D9F4DB6240B5B1A6F3E8DF40C0
Blacktown (North) - Marayong,Park,Park,150.86829421712378,-33.757063876196305,0101000020E6100000483BF410C9DB6240819F1678E7E040C0
Blacktown (North) - Marayong,GOLLAN PARK,Park,150.87015231581364,-33.7663937473289,0101000020E6100000AA5EAB49D8DB62407951B83019E240C0
Blacktown (North) - Marayong,BECHARRY PARK,Park,150.88756381568834,-33.75856479613719,0101000020E6100000D22F3BEC66DC624030A7B7A618E140C0
Blacktown (North) - Marayong,Park,Park,150.89137474400806,-33.76034426222615,0101000020E6100000D7BF532486DC624035FBF5F552E140C0
Blacktown (North) - Marayong,CAPTAIN TENCH RESERVE,Park,150.89106312023267,-33.756018084622106,0101000020E61000004602CE9683DC624079515A33C5E040C0
Blacktown (North) - Marayong,Park,Park,150.88177125595416,-33.74489797138698,0101000020E6100000085C5A7837DC62405FFB14D158DF40C0
Blacktown (North) - Marayong,Park,Park,150.89113011658654,-33.73907170752302,0101000020E610000009674E2384DC6240E99AD6E699DE40C0
Blacktown (North) - Marayong,Park,Park,150.8867269110337,-33.73890339097274,0101000020E6100000EE6B1D1160DC6240D290E56294DE40C0
Blacktown (North) - Marayong,MARAYONG HEIGHTS RESERVE,Park,150.8947863451328,-33.743974681710725,0101000020E61000001628F916A2DC6240F27FF78F3ADF40C0
Blacktown (North) - Marayong,Park,Park,150.8981616327606,-33.74262075314101,0101000020E610000052E776BDBDDC6240280964320EDF40C0
Blacktown (North) - Marayong,Park,Park,150.87888199462438,-33.74753941418862,0101000020E61000008FFE21CD1FDC6240A0341C5FAFDF40C0
Blacktown (North) - Marayong,MELROSE PARK,Park,150.88173648486443,-33.739595857897136,0101000020E6100000D9C56E2F37DC62406FF6BA13ABDE40C0
Blacktown (North) - Marayong,MARAYONG POST OFFICE,Post Office,150.89980980415174,-33.74663657160806,0101000020E6100000762EEE3DCBDC6240EF8684C991DF40C0
Blacktown (North) - Marayong,CATHOLIC CHURCH,Place Of Worship,150.885937274831,-33.742113382972825,0101000020E61000009CB6209959DC624067E54292FDDE40C0
Blacktown (North) - Marayong,ST ANDREWS COLLEGE,High School,150.88798325795915,-33.74256741756761,0101000020E6100000908ADD5B6ADC624097C3FA720CDF40C0
Blacktown (North) - Marayong,HARVEY PARK,Park,150.8910318534709,-33.74573666851687,0101000020E610000042CB3B5583DC62409E5A954C74DF40C0
Blacktown (North) - Marayong,QUAKERS HILL WATER POLLUTION PLANT,Filtration Plant,150.87730814445,-33.73624057753624,0101000020E6100000AC9D87E812DC6240CF4099213DDE40C0
Blacktown (North) - Marayong,Parking Area,Parking Area,150.87841625318384,-33.75265654685356,0101000020E610000062F666FC1BDC62409CEDBA0C57E040C0
Blacktown (North) - Marayong,TENNIS COURTS,Sports Court,150.87902099005004,-33.75193563717811,0101000020E61000006698A0F020DC62403E304D6D3FE040C0
Blacktown (North) - Marayong,NETBALL COURTS,Sports Court,150.87940949793563,-33.751927237484054,0101000020E61000009C2D631F24DC62409AFBD6263FE040C0
Blacktown (North) - Marayong,Parking Area,Parking Area,150.8812409022885,-33.75456724635078,0101000020E610000041E71E2033DC6240CDDAD6A895E040C0
Blacktown (North) - Marayong,Parking Area,Parking Area,150.88120391685163,-33.75203345180113,0101000020E6100000847F8ED232DC6240EF7DD4A142E040C0
Blacktown (North) - Marayong,Park,Park,150.88153401537923,-33.75329816182332,0101000020E6100000B1CBD28635DC62408395FC126CE040C0
Blacktown (North) - Marayong,Parking Area,Parking Area,150.8741010654609,-33.7556215625059,0101000020E6100000B531CCA2F8DB6240C18E1535B8E040C0
Blacktown (North) - Marayong,Sports Field,Sports Field,150.87497837903197,-33.75543861654301,0101000020E6100000C854A8D2FFDB624007186C36B2E040C0
Blacktown (North) - Marayong,Sports Field,Sports Field,150.87390744348286,-33.75416835811283,0101000020E6100000AD2FBE0CF7DB6240E5E2B89688E040C0
Blacktown (North) - Marayong,Park,Park,150.8783043563371,-33.74962605854926,0101000020E6100000DFCCBC111BDC624067D926BFF3DF40C0
Blacktown (North) - Marayong,Park,Park,150.87821226913908,-33.75336324009091,0101000020E6100000BFDC9D501ADC62407B19E7346EE040C0
Blacktown (North) - Marayong,SAUNDERS RESERVE,Park,150.88113131770533,-33.764942425252535,0101000020E6100000D3204E3A32DC62402BE425A2E9E140C0
Blacktown (North) - Marayong,Sports Field,Sports Field,150.8823449416542,-33.76524205547335,0101000020E61000004486752B3CDC624014E4A073F3E140C0
Blacktown (North) - Marayong,Park,Park,150.88540450918882,-33.75145738211606,0101000020E61000004D56D63B55DC62405C4368C12FE040C0
Blacktown (North) - Marayong,MARAYONG PARK,Park,150.89709765376503,-33.749389642978784,0101000020E6100000A7872306B5DC62400A47F4FFEBDF40C0
Blacktown (North) - Marayong,TENNIS COURTS,Sports Court,150.89709579784568,-33.750609523984224,0101000020E61000000A243F02B5DC624008CA0EF913E040C0
Blacktown (North) - Marayong,Parking Area,Parking Area,150.88437218143395,-33.76667019701287,0101000020E61000000898E3C64CDC62407C7EBF3F22E240C0
Blacktown (North) - Marayong,WOODCROFT LAKE,Natural Waterbody,150.88043092553283,-33.75306411208475,0101000020E61000009EF1797D2CDC6240FF98A26764E040C0
Blacktown (North) - Marayong,REFORMED CHURCH,Place Of Worship,150.8824345728583,-33.74945781350134,0101000020E610000028E96DE73CDC6240265CCF3BEEDF40C0
Blacktown (North) - Marayong,BLACKTOWN FIRE STATION,Fire Station,150.8870382482466,-33.75244794600314,0101000020E6100000A650099E62DC62404F03DC3650E040C0
Blacktown (North) - Marayong,Parking Area,Parking Area,150.9031467894124,-33.765394846140104,0101000020E610000070801894E6DC62406F595475F8E140C0
Blacktown (North) - Marayong,Parking Area,Parking Area,150.88828176722978,-33.74191227644703,0101000020E6100000527CE2CD6CDC6240A3EB41FBF6DE40C0
Blacktown (North) - Marayong,Park,Park,150.89666532066994,-33.74004712321089,0101000020E61000008377787BB1DC624047D837DDB9DE40C0
Blacktown (North) - Marayong,Park,Park,150.8767798434348,-33.744404092281044,0101000020E6100000062B9A940EDC624086AD1FA248DF40C0
Blacktown (North) - Marayong,Sports Field,Sports Field,150.90233778104053,-33.766601657827,0101000020E610000075707BF3DFDC624093B6CC0020E240C0
Blacktown (North) - Marayong,Park,Park,150.90529234450156,-33.76765678108034,0101000020E6100000829EA627F8DC624077A5D09342E240C0
Blacktown (North) - Marayong,MARAYONG,Suburb,150.89416009451398,-33.745202630761675,0101000020E61000006D6AA1F59CDC6240DD01C0CC62DF40C0
Blacktown (North) - Marayong,WOODCROFT,Suburb,150.88089893521945,-33.7557246936401,0101000020E610000029BBF65230DC62405FFB3596BBE040C0
Blacktown (North) - Marayong,DOONSIDE,Suburb,150.86944531743055,-33.76349991478626,0101000020E6100000C980FC7ED2DB6240BD407E5DBAE140C0
Blacktown (North) - Marayong,Pumping Station,Pumping Station,150.8679000255973,-33.734366003846866,0101000020E61000006A4446D6C5DB624083E888B4FFDD40C0
Blacktown (North) - Marayong,Sports Field,Sports Field,150.88122358366817,-33.73797316263063,0101000020E6100000330ACDFB32DC6240816993E775DE40C0
Blacktown (North) - Marayong,Sports Field,Sports Field,150.88051905924533,-33.73902376843819,0101000020E6100000D45E4E362DDC62405034B25498DE40C0
Blacktown (North) - Marayong,BASKETBALL COURTS,Sports Court,150.8891487636498,-33.74397143685411,0101000020E6100000F4A41BE873DC62402839BF743ADF40C0
Blacktown (North) - Marayong,Sports Field,Sports Field,150.8881523720996,-33.744320960388634,0101000020E61000000B0186BE6BDC62405A4CC3E845DF40C0
Blacktown (North) - Marayong,Sports Field,Sports Field,150.88987524020325,-33.74494689691866,0101000020E61000002EC6A3DB79DC6240DCC27F6B5ADF40C0
Blacktown (North) - Marayong,Sports Field,Sports Field,150.89649155415466,-33.7488716952203,0101000020E610000081470E0FB0DC624086EF1707DBDF40C0
Blacktown (North) - Marayong,HENRY MITCHELL RESERVE,Park,150.9062136530637,-33.73317666281063,0101000020E61000001D63C6B3FFDC6240257B9EBBD8DD40C0
Blacktown (North) - Marayong,CATHOLIC CHURCH,Place Of Worship,150.90214043015578,-33.74712315437905,0101000020E6100000647D9B55DEDC6240391245BBA1DF40C0
Blacktown (North) - Marayong,WOODCROFT NEIGHBOURHOOD CENTRE,Community Facility,150.8788653039264,-33.75306915885528,0101000020E61000007F3E21AA1FDC62407074F89164E040C0
Blacktown (North) - Marayong,TENNIS COURT,Sports Court,150.8889368286164,-33.743818017892195,0101000020E6100000C2E3A52B72DC6240E282C66D35DF40C0
Blacktown (North) - Marayong,OLGA ROBSHAW RESERVE,Park,150.89965222617613,-33.755798314274486,0101000020E6100000672677F3C9DC62402617C9FFBDE040C0
Blacktown (North) - Marayong,CATHOLIC CHURCH,Place Of Worship,150.89018499099126,-33.74821111226568,0101000020E610000052F63B657CDC6240AAD7B861C5DF40C0
Blacktown (North) - Marayong,ANGLICAN CHURCH,Place Of Worship,150.90514568464997,-33.76620058300644,0101000020E6100000FD3515F4F6DC62402A1857DC12E240C0
Blacktown (North) - Marayong,OVAL,Sports Field,150.90377002798004,-33.76681178275651,0101000020E6100000F0281FAFEBDC6240379074E326E240C0
Blacktown (North) - Marayong,MARAYONG HEIGHTS PUBLIC SCHOOL,Primary School,150.8971334821718,-33.74212257991998,0101000020E610000062C24651B5DC6240923069DFFDDE40C0
Blacktown (North) - Marayong,MARAYONG PUBLIC SCHOOL,Primary School,150.8950451803089,-33.75695225635433,0101000020E6100000D03BCA35A4DC62406FD6C0CFE3E040C0
Blacktown (North) - Marayong,DOONSIDE PUBLIC SCHOOL,Primary School,150.87040221365095,-33.76476441905626,0101000020E6100000E63FBE55DADB6240DC7EECCCE3E140C0
Blacktown (North) - Marayong,ST JOHN VIANNEY'S PRIMARY SCHOOL,Primary School,150.8723528109673,-33.758268616918436,0101000020E6100000B4357150EADB6240B99F2FF20EE140C0
Blacktown (North) - Marayong,CRAWFORD PUBLIC SCHOOL,Primary School,150.86906161463338,-33.75520307964145,0101000020E6100000E6A14D5ACFDB62400273987EAAE040C0
Blacktown (North) - Marayong,MARAYONG SOUTH PUBLIC SCHOOL,Primary School,150.88529252251055,-33.760741823740474,0101000020E610000070F2FB5054DC624016D5F2FC5FE140C0
Blacktown (North) - Marayong,DOONSIDE HIGH SCHOOL,High School,150.87380735139726,-33.75561379129314,0101000020E61000002EA8D53AF6DB62405C01E5F3B7E040C0
Blacktown (North) - Marayong,QUAKERS HILL PUBLIC SCHOOL,Primary School,150.88480424503447,-33.73803521138498,0101000020E61000001FF9FD5050DC6240F41814F077DE40C0
Blacktown (North) - Marayong,ST ANDREWS PRIMARY SCHOOL,Primary School,150.89066365829044,-33.747456685697315,0101000020E6100000FB82125180DC62408E1F22A9ACDF40C0
Blacktown (North) - Marayong,BLESSED FRANCES SIEDLISKA RETIREMENT VILLAGE,Retirement Village,150.88453601617547,-33.74261105427251,0101000020E610000073B3791E4EDC6240CFDF07E10DDF40C0
Blacktown (North) - Marayong,BROTHER ALBERTS HOME,Nursing Home,150.8862530667893,-33.74295933140696,0101000020E6100000DF3A642F5CDC62405153974A19DF40C0
Blacktown (North) - Marayong,METS62N1,Roadside Emergency Telephone,150.8730544940189,-33.733130095038256,0101000020E6100000FC6DFA0FF0DB62408BF3FA34D7DD40C0
Blacktown (North) - Marayong,METS62S1,Roadside Emergency Telephone,150.87309382765196,-33.73358369009305,0101000020E610000059837762F0DB624011EA0212E6DD40C0
Blacktown (North) - Marayong,METS64S1,Roadside Emergency Telephone,150.88183231893558,-33.73454587505748,0101000020E61000004B4C69F837DC62404C64679905DE40C0
Blacktown (North) - Marayong,METS64N1,Roadside Emergency Telephone,150.8842462825469,-33.734291280083546,0101000020E6100000C124DCBE4BDC624031D9B441FDDD40C0
Blacktown (North) - Marayong,METS65S1,Roadside Emergency Telephone,150.888498901712,-33.73502590454678,0101000020E610000052AC3F956EDC6240E1DE2E5415DE40C0
Blacktown (North) - Marayong,METS66N1,Roadside Emergency Telephone,150.8910187488475,-33.73477439334402,0101000020E6100000884DC03983DC6240E7AC5A160DDE40C0
Blacktown (North) - Marayong,METS68N1,Roadside Emergency Telephone,150.90177403609744,-33.735628266364024,0101000020E6100000742D3955DBDC6240F905291129DE40C0
Blacktown (North) - Marayong,METS68S1,Roadside Emergency Telephone,150.9017039558272,-33.73601217595843,0101000020E6100000741E41C2DADC62408199A0A535DE40C0
Blacktown (North) - Marayong,METS68S2,Roadside Emergency Telephone,150.90606284299545,-33.736636956195056,0101000020E610000029D98077FEDC6240FEF0A91E4ADE40C0
Blacktown (North) - Marayong,DOONSIDE PUBLIC SCHOOL PRESCHOOL WINGARRA,Preschool,150.86977403524753,-33.764274250209596,0101000020E61000008A895B30D5DB62409EE916BDD3E140C0
Blacktown (North) - Marayong,MARAYONG PUBLIC SCHOOL PRESCHOOL,Preschool,150.89565907819434,-33.7576518145779,0101000020E6100000BA263A3DA9DC6240FEAE12BCFAE040C0
Blacktown (North) - Marayong,ASPECT WESTERN SYDNEY SCHOOL QUAKERS ROAD MARAYONG,Special School,150.88807001994422,-33.74244253999241,0101000020E6100000FE86D1116BDC62409A366E5B08DF40C0
Blacktown (North) - Marayong,DOONSIDE COMMUNITY CENTRE,Community Facility,150.86929561947667,-33.762167042552115,0101000020E6100000AB060C45D1DB6240D9EC8CB08EE140C0
Blacktown (North) - Marayong,FEATHERDALE WILDLIFE PARK,Park,150.88421648632726,-33.765892938670746,0101000020E6100000826B5F804BDC624002EAA1C708E240C0
Blacktown (North) - Marayong,WOODCROFT RESERVE,Park,150.87995783407663,-33.754295628809906,0101000020E6100000FBE6549D28DC62408DA058C28CE040C0
Blacktown (North) - Marayong,WAYNE GAME RESERVE,Park,150.90277555433303,-33.7585498084053,0101000020E6100000A32F8F89E3DC624071BEFD2818E140C0
Blacktown (North) - Marayong,Parking Area,Parking Area,150.88839201566796,-33.74350487091243,0101000020E610000049AA17B56DDC6240287EE82A2BDF40C0
Blacktown (North) - Marayong,CHESTER PARK,Park,150.89303198658695,-33.76771787937807,0101000020E61000008815D1B793DC6240DC3D589444E240C0
Blacktown (North) - Marayong,QUAKERS HILL PRP,Ambulance Station,150.88167302877113,-33.7359926430051,0101000020E6100000CB0A5BAA36DC6240D9E6C50135DE40C0
Blacktown (North) - Marayong,QUAKERS HILL SEWERAGE TREATMENT PLANT,Sewage Works,150.87803007642637,-33.73482181261263,0101000020E6100000FBE487D218DC624083C722A40EDE40C0
Blacktown (North) - Marayong,ASPECT WESTERN SYDNEY SCHOOL ST ANDREWS COLLEGE SENIOR CAMPUS,Special School,150.8888664339358,-33.74951570327975,0101000020E61000008608059871DC624065B66C21F0DF40C0
Blacktown (North) - Marayong,DOONSIDE RAILWAY STATION,Railway Station,150.8688354529808,-33.76387849964275,0101000020E61000000D050280CDDB6240A50A4BC5C6E140C0
Blacktown (North) - Marayong,MARAYONG RAILWAY STATION,Railway Station,150.90012432319728,-33.746248520640655,0101000020E6100000ED4E86D1CDDC6240856B4F1285DF40C0
Blacktown (North) - Marayong,WARREN HARDY PARK,Park,150.87641488308768,-33.76388325975188,0101000020E6100000DB9239970BDC6240504C39EDC6E140C0
Doonside - Woodcroft,Park,Park,150.88237205730104,-33.78330901071505,0101000020E6100000642053643CDC624075D73B7843E440C0
Doonside - Woodcroft,CHRISTADELPHIAN CHURCH,Place Of Worship,150.86599520732616,-33.76387387395756,0101000020E6100000ADBE943BB6DB624051757D9EC6E140C0
Doonside - Woodcroft,MORREAU RESERVE,Park,150.85509576113435,-33.77854906544157,0101000020E6100000A620C9F15CDB62409233EB7EA7E340C0
Doonside - Woodcroft,DOONSIDE POST OFFICE,Post Office,150.8698090937981,-33.762539540799075,0101000020E61000000A74E179D5DB6240C7D14AE59AE140C0
Doonside - Woodcroft,UNITING CHURCH,Place Of Worship,150.87288958309568,-33.75664035455926,0101000020E6100000488D22B6EEDB62403BD55497D9E040C0
Doonside - Woodcroft,ASSEMBLIES OF GOD CHURCH,Place Of Worship,150.87373864285448,-33.75670134569364,0101000020E6100000F709BEAAF5DB6240F44BF696DBE040C0
Doonside - Woodcroft,CATHOLIC CHURCH,Place Of Worship,150.87183290021687,-33.75839910567443,0101000020E610000044401C0EE6DB6240FA17CE3813E140C0
Doonside - Woodcroft,ANNE AQUILINA RESERVE,Park,150.85885997795762,-33.772132738699085,0101000020E61000007BA5EBC77BDB62401671DE3ED5E240C0
Doonside - Woodcroft,CHURCH OF CHRIST,Place Of Worship,150.87024443804606,-33.765472447805806,0101000020E6100000E11DDD0AD9DB624052A84C00FBE140C0
Doonside - Woodcroft,NURRAGINGY RESERVE,Park,150.85977563072672,-33.760144401603085,0101000020E6100000CFFB2E4883DB6240B68F68694CE140C0
Doonside - Woodcroft,ANGLICAN CHURCH,Place Of Worship,150.8706674214757,-33.75841302693291,0101000020E6100000C99DEC81DCDB6240C3C495AD13E140C0
Doonside - Woodcroft,BILL COLBOURNE RESERVE,Park,150.87363899902817,-33.74929662360538,0101000020E6100000C22AC6D9F4DB6240B5B1A6F3E8DF40C0
Doonside - Woodcroft,Park,Park,150.86829421712378,-33.757063876196305,0101000020E6100000483BF410C9DB6240819F1678E7E040C0
Doonside - Woodcroft,GOLLAN PARK,Park,150.87015231581364,-33.7663937473289,0101000020E6100000AA5EAB49D8DB62407951B83019E240C0
Doonside - Woodcroft,Park,Park,150.88170935035296,-33.7699276441781,0101000020E6100000FD0A87F636DC6240000432FD8CE240C0
Doonside - Woodcroft,WARRINA RESERVE,Park,150.88399002912894,-33.77243729830799,0101000020E61000002A2375A549DC6240C238B339DFE240C0
Doonside - Woodcroft,Park,Park,150.88506636085796,-33.776816426612214,0101000020E61000009755B07652DC6240C4A57DB86EE340C0
Doonside - Woodcroft,Park,Park,150.87809266295054,-33.77831020214684,0101000020E61000005DC7C85519DC6240922E30AB9FE340C0
Doonside - Woodcroft,Shopping Centre,Shopping Centre,150.87621139221793,-33.77207954618779,0101000020E6100000AD3E79EC09DC6240BF64A880D3E240C0
Doonside - Woodcroft,Park,Park,150.87634908778134,-33.76824274778368,0101000020E6100000CFFC3D0D0BDC62405F8F42C755E240C0
Doonside - Woodcroft,MORMON CHURCH,Place Of Worship,150.87269225916037,-33.769910002995964,0101000020E61000001E125118EDDB62408FDD35698CE240C0
Doonside - Woodcroft,Park,Park,150.88177125595416,-33.74489797138698,0101000020E6100000085C5A7837DC62405FFB14D158DF40C0
Doonside - Woodcroft,Park,Park,150.87888199462438,-33.74753941418862,0101000020E61000008FFE21CD1FDC6240A0341C5FAFDF40C0
Doonside - Woodcroft,CATHOLIC CHURCH,Place Of Worship,150.885937274831,-33.742113382972825,0101000020E61000009CB6209959DC624067E54292FDDE40C0
Doonside - Woodcroft,JOE MCALEER PARK,Park,150.86025793710104,-33.74384447128576,0101000020E6100000263FA73B87DB6240CBBDAE4B36DF40C0
Doonside - Woodcroft,Parking Area,Parking Area,150.87841625318384,-33.75265654685356,0101000020E610000062F666FC1BDC62409CEDBA0C57E040C0
Doonside - Woodcroft,TENNIS COURTS,Sports Court,150.87902099005004,-33.75193563717811,0101000020E61000006698A0F020DC62403E304D6D3FE040C0
Doonside - Woodcroft,NETBALL COURTS,Sports Court,150.87940949793563,-33.751927237484054,0101000020E61000009C2D631F24DC62409AFBD6263FE040C0
Doonside - Woodcroft,Parking Area,Parking Area,150.8812409022885,-33.75456724635078,0101000020E610000041E71E2033DC6240CDDAD6A895E040C0
Doonside - Woodcroft,Parking Area,Parking Area,150.88120391685163,-33.75203345180113,0101000020E6100000847F8ED232DC6240EF7DD4A142E040C0
Doonside - Woodcroft,Park,Park,150.88153401537923,-33.75329816182332,0101000020E6100000B1CBD28635DC62408395FC126CE040C0
Doonside - Woodcroft,BAPTIST CHURCH,Place Of Worship,150.8650656782809,-33.75936839851628,0101000020E610000079A3379EAEDB6240259FD2FB32E140C0
Doonside - Woodcroft,Parking Area,Parking Area,150.860525538936,-33.7621672486733,0101000020E61000004BE3DA6C89DB62402B9147B28EE140C0
Doonside - Woodcroft,TENNIS COURTS,Sports Court,150.8663226701967,-33.76817773159223,0101000020E6100000E70852EAB8DB6240205ADDA553E240C0
Doonside - Woodcroft,Park,Park,150.87411126583095,-33.778021929791166,0101000020E6100000E47930B8F8DB62400E03FC3896E340C0
Doonside - Woodcroft,Parking Area,Parking Area,150.8741010654609,-33.7556215625059,0101000020E6100000B531CCA2F8DB6240C18E1535B8E040C0
Doonside - Woodcroft,Sports Field,Sports Field,150.87497837903197,-33.75543861654301,0101000020E6100000C854A8D2FFDB624007186C36B2E040C0
Doonside - Woodcroft,Sports Field,Sports Field,150.87390744348286,-33.75416835811283,0101000020E6100000AD2FBE0CF7DB6240E5E2B89688E040C0
Doonside - Woodcroft,Park,Park,150.8783043563371,-33.74962605854926,0101000020E6100000DFCCBC111BDC624067D926BFF3DF40C0
Doonside - Woodcroft,Park,Park,150.87821226913908,-33.75336324009091,0101000020E6100000BFDC9D501ADC62407B19E7346EE040C0
Doonside - Woodcroft,BASEBALL FIELDS,Sports Field,150.8559075569785,-33.770653932914065,0101000020E6100000E7B33E9863DB62402933BFC9A4E240C0
Doonside - Woodcroft,MOUNTAIN VIEW ADVENTIST COLLEGE,Combined Primary-Secondary School,150.87192851959065,-33.76882436658981,0101000020E6100000EE82A3D6E6DB6240826F3BD668E240C0
Doonside - Woodcroft,Sports Field,Sports Field,150.87161832054326,-33.768030382334864,0101000020E61000007DAA1A4CE4DB6240373BCFD14EE240C0
Doonside - Woodcroft,Parking Area,Parking Area,150.8770869037686,-33.77212887512306,0101000020E6100000F4ED8D1811DC6240B479751ED5E240C0
Doonside - Woodcroft,Parking Area,Parking Area,150.88610759900214,-33.78186739632461,0101000020E610000071CE52FE5ADC6240ED82183B14E440C0
Doonside - Woodcroft,Sports Field,Sports Field,150.88505044989762,-33.78408495080499,0101000020E6100000DA33525552DC6240217F4AE55CE440C0
Doonside - Woodcroft,Sports Field,Sports Field,150.8857964594186,-33.784192643902806,0101000020E6100000B203D17158DC6240C5A9AF6C60E440C0
Doonside - Woodcroft,TALLAWONG OVAL,Sports Field,150.88370463436314,-33.77544725086416,0101000020E61000003AFDF04E47DC62400A1E03DB41E340C0
Doonside - Woodcroft,SAUNDERS RESERVE,Park,150.88113131770533,-33.764942425252535,0101000020E6100000D3204E3A32DC62402BE425A2E9E140C0
Doonside - Woodcroft,Sports Field,Sports Field,150.8823449416542,-33.76524205547335,0101000020E61000004486752B3CDC624014E4A073F3E140C0
Doonside - Woodcroft,Park,Park,150.88540450918882,-33.75145738211606,0101000020E61000004D56D63B55DC62405C4368C12FE040C0
Doonside - Woodcroft,Parking Area,Parking Area,150.88437218143395,-33.76667019701287,0101000020E61000000898E3C64CDC62407C7EBF3F22E240C0
Doonside - Woodcroft,WOODCROFT LAKE,Natural Waterbody,150.88043092553283,-33.75306411208475,0101000020E61000009EF1797D2CDC6240FF98A26764E040C0
Doonside - Woodcroft,REFORMED CHURCH,Place Of Worship,150.8824345728583,-33.74945781350134,0101000020E610000028E96DE73CDC6240265CCF3BEEDF40C0
Doonside - Woodcroft,BLACKTOWN FIRE STATION,Fire Station,150.8870382482466,-33.75244794600314,0101000020E6100000A650099E62DC62404F03DC3650E040C0
Doonside - Woodcroft,BASKETBALL COURT,Sports Court,150.86631474615757,-33.76837657954248,0101000020E610000042D9B3D9B8DB6240DB12EC295AE240C0
Doonside - Woodcroft,CHARLIE BALI RESERVE,Park,150.86206332804,-33.767223148966465,0101000020E61000006820D50596DB6240C6C53E5E34E240C0
Doonside - Woodcroft,Sports Field,Sports Field,150.8622893190126,-33.76750497644811,0101000020E61000002D1BC5DF97DB624052AE629A3DE240C0
Doonside - Woodcroft,Parking Area,Parking Area,150.86108144967147,-33.76685246109586,0101000020E61000000031AFFA8DDB6240C5A1B03828E240C0
Doonside - Woodcroft,KAREELA RESERVE,Park,150.86473544500598,-33.76662476759176,0101000020E6100000C4FFAAE9ABDB62401B8EA8C220E240C0
Doonside - Woodcroft,Sports Field,Sports Field,150.86413726134992,-33.76632962811044,0101000020E610000018982F03A7DB62405858D91617E240C0
Doonside - Woodcroft,Sports Field,Sports Field,150.86512345163175,-33.76748583824111,0101000020E61000005A786017AFDB6240C1B1D7F93CE240C0
Doonside - Woodcroft,Parking Area,Parking Area,150.8654483776599,-33.768139347940476,0101000020E61000009ECDCBC0B1DB62406A16E16352E240C0
Doonside - Woodcroft,Park,Park,150.8767798434348,-33.744404092281044,0101000020E6100000062B9A940EDC624086AD1FA248DF40C0
Doonside - Woodcroft,FRANCISCAN ORDER OF FRIARS,Convent/Monastery,150.88414853057262,-33.78262536372575,0101000020E6100000B5F3DBF14ADC6240711C63112DE440C0
Doonside - Woodcroft,SOCCER FIELD,Sports Field,150.8558245948671,-33.77381395943719,0101000020E610000022C242EA62DB62404A7CF8550CE340C0
Doonside - Woodcroft,WOODFARM RESERVE,Park,150.86483385185215,-33.749738646233055,0101000020E6100000B8C50AB8ACDB6240240F9B6FF7DF40C0
Doonside - Woodcroft,ARNDELL PARK,Suburb,150.87751724709528,-33.78806587157477,0101000020E610000068BE0C9F14DC6240F2C0AC57DFE440C0
Doonside - Woodcroft,WOODCROFT,Suburb,150.88089893521945,-33.7557246936401,0101000020E610000029BBF65230DC62405FFB3596BBE040C0
Doonside - Woodcroft,DOONSIDE,Suburb,150.86944531743055,-33.76349991478626,0101000020E6100000C980FC7ED2DB6240BD407E5DBAE140C0
Doonside - Woodcroft,Sports Field,Sports Field,150.86014832556842,-33.744627501186145,0101000020E6100000D100C85586DB6240FAA536F44FDF40C0
Doonside - Woodcroft,DURAWI PARK,Park,150.85745760808615,-33.74169358221994,0101000020E6100000F70DF04A70DB6240D4A4B7D0EFDE40C0
Doonside - Woodcroft,HILLVIEW PARK,Park,150.8563140284749,-33.74430019981208,0101000020E6100000FC6CADEC66DB6240B14C9C3A45DF40C0
Doonside - Woodcroft,WOODCROFT NEIGHBOURHOOD CENTRE,Community Facility,150.8788653039264,-33.75306915885528,0101000020E61000007F3E21AA1FDC62407074F89164E040C0
Doonside - Woodcroft,COLEBEE CENTRE,Community Facility,150.8604499726543,-33.76268181744627,0101000020E61000009E8C61CE88DB6240C197CB8E9FE140C0
Doonside - Woodcroft,Place Of Worship,Place Of Worship,150.87352283428558,-33.78523436604487,0101000020E61000001BB228E6F3DB6240D3ED488F82E440C0
Doonside - Woodcroft,BLACKTOWN RUGBY CLUB,Community Facility,150.8616388561019,-33.767809527116405,0101000020E6100000757DA68B92DB6240D742249547E240C0
Doonside - Woodcroft,TYNDALE CHRISTIAN SCHOOL,Combined Primary-Secondary School,150.88557790829316,-33.782178580620354,0101000020E6100000BC457BA756DC6240B4B27F6D1EE440C0
Doonside - Woodcroft,DOONSIDE PUBLIC SCHOOL,Primary School,150.87040221365095,-33.76476441905626,0101000020E6100000E63FBE55DADB6240DC7EECCCE3E140C0
Doonside - Woodcroft,ST JOHN VIANNEY'S PRIMARY SCHOOL,Primary School,150.8723528109673,-33.758268616918436,0101000020E6100000B4357150EADB6240B99F2FF20EE140C0
Doonside - Woodcroft,CRAWFORD PUBLIC SCHOOL,Primary School,150.86906161463338,-33.75520307964145,0101000020E6100000E6A14D5ACFDB62400273987EAAE040C0
Doonside - Woodcroft,MARAYONG SOUTH PUBLIC SCHOOL,Primary School,150.88529252251055,-33.760741823740474,0101000020E610000070F2FB5054DC624016D5F2FC5FE140C0
Doonside - Woodcroft,DOONSIDE HIGH SCHOOL,High School,150.87380735139726,-33.75561379129314,0101000020E61000002EA8D53AF6DB62405C01E5F3B7E040C0
Doonside - Woodcroft,BUNGARRIBEE,Suburb,150.86534127602013,-33.779006927890315,0101000020E6100000550C30E0B0DB6240BB52BF7FB6E340C0
Doonside - Woodcroft,BLESSED FRANCES SIEDLISKA RETIREMENT VILLAGE,Retirement Village,150.88453601617547,-33.74261105427251,0101000020E610000073B3791E4EDC6240CFDF07E10DDF40C0
Doonside - Woodcroft,BROTHER ALBERTS HOME,Nursing Home,150.8862530667893,-33.74295933140696,0101000020E6100000DF3A642F5CDC62405153974A19DF40C0
Doonside - Woodcroft,BUNGARRIBEE HOMESTEAD PARK,Park,150.8714832606369,-33.77904973068571,0101000020E61000004DEEDC30E3DB62405AA0CDE6B7E340C0
Doonside - Woodcroft,WAWARRAWARRI PARK,Park,150.86938414754957,-33.77946477221163,0101000020E61000005C2CB4FED1DB62403B846C80C5E340C0
Doonside - Woodcroft,METS46S1,Roadside Emergency Telephone,150.858521784711,-33.7822167855082,0101000020E61000009887AD0279DB6240EA11FCAD1FE440C0
Doonside - Woodcroft,METS46N1,Roadside Emergency Telephone,150.85803429685413,-33.782202738947724,0101000020E6100000B77A570475DB6240A14F27381FE440C0
Doonside - Woodcroft,METS48S1,Roadside Emergency Telephone,150.85547702590387,-33.775431670964586,0101000020E610000091175B1160DB6240AB89515841E340C0
Doonside - Woodcroft,DOONSIDE COMMUNITY HEALTH CENTRE,Community Medical Centre,150.87630643756827,-33.771207906833034,0101000020E61000002954CCB30ADC6240DB21D1F0B6E240C0
Doonside - Woodcroft,DOONSIDE PUBLIC SCHOOL PRESCHOOL WINGARRA,Preschool,150.86977403524753,-33.764274250209596,0101000020E61000008A895B30D5DB62409EE916BDD3E140C0
Doonside - Woodcroft,DOONSIDE COMMUNITY CENTRE,Community Facility,150.86929561947667,-33.762167042552115,0101000020E6100000AB060C45D1DB6240D9EC8CB08EE140C0
Doonside - Woodcroft,DOONSIDE NEIGHBOURHOOD CENTRE,Community Facility,150.87675379408816,-33.77127992361998,0101000020E61000001508F95D0EDC62402D01F04CB9E240C0
Doonside - Woodcroft,FEATHERDALE WILDLIFE PARK,Park,150.88421648632726,-33.765892938670746,0101000020E6100000826B5F804BDC624002EAA1C708E240C0
Doonside - Woodcroft,WOODCROFT RESERVE,Park,150.87995783407663,-33.754295628809906,0101000020E6100000FBE6549D28DC62408DA058C28CE040C0
Doonside - Woodcroft,OTC PARK,Park,150.86969843303322,-33.77383653111598,0101000020E610000053E8CE91D4DB6240EFCB50130DE340C0
Doonside - Woodcroft,Parking Area,Parking Area,150.85972173001306,-33.74342847067136,0101000020E6100000224225D782DB6240723904AA28DF40C0
Doonside - Woodcroft,SOCCER FIELDS,Sports Field,150.85655322288562,-33.77503115195398,0101000020E610000078F24DE268DB62400483853834E340C0
Doonside - Woodcroft,MIKADO PARK,Park,150.8780651789944,-33.77070070657402,0101000020E61000003271251C19DC6240A8DE1C52A6E240C0
Doonside - Woodcroft,JAPARA HENLEY MANOR,Nursing Home,150.8656819072944,-33.760819998701976,0101000020E610000030128BAAB3DB6240AC48BA8C62E140C0
Doonside - Woodcroft,BUNGARRIBEE CREEK RESERVE,Park,150.87646441888737,-33.781749412279304,0101000020E610000053E71BFF0BDC624013B45F5D10E440C0
Doonside - Woodcroft,CRICKET GROUND,Sports Field,150.8562925686211,-33.76879519747644,0101000020E61000002241ACBF66DB6240D93D8BE167E240C0
Doonside - Woodcroft,OVAL,Sports Field,150.859223862123,-33.76944743517854,0101000020E61000005B780AC37EDB62409D0AE9407DE240C0
Doonside - Woodcroft,WESTERN SYDNEY WANDERERS CENTRE OF FOOTBALL,Sports Centre,150.85701857894887,-33.775688283086296,0101000020E6100000CB143AB26CDB62407EDFEFC049E340C0
Doonside - Woodcroft,SYDNEY ZOO,Zoo,150.866062006949,-33.78896273588545,0101000020E6100000EE84ABC7B6DB624002321EBBFCE440C0
Doonside - Woodcroft,PLAYGROUND,Park,150.8678213852807,-33.78699215700576,0101000020E61000009A915A31C5DB62402D46B428BCE440C0
Doonside - Woodcroft,DOONSIDE RAILWAY STATION,Railway Station,150.8688354529808,-33.76387849964275,0101000020E61000000D050280CDDB6240A50A4BC5C6E140C0
Doonside - Woodcroft,WARREN HARDY PARK,Park,150.87641488308768,-33.76388325975188,0101000020E6100000DB9239970BDC6240504C39EDC6E140C0
Doonside - Woodcroft,Parking Area,Parking Area,150.86412531195998,-33.76742183558913,0101000020E6100000725020EAA6DB6240BA0BF3E03AE240C0
Doonside - Woodcroft,Parking Area,Parking Area,150.85763476304666,-33.770490420923196,0101000020E6100000576675BE71DB62408ADF1B6E9FE240C0
Doonside - Woodcroft,Parking Area,Parking Area,150.86758964778522,-33.79018932225262,0101000020E6100000BE725D4BC3DB6240995C78EC24E540C0
Doonside - Woodcroft,Parking Area,Parking Area,150.8650059061785,-33.789743435679036,0101000020E610000046BCDD20AEDB62406F3C1A5016E540C0
Lalor Park - Kings Langley,BILLY GOAT HILL RESERVE,Park,150.91648037717334,-33.766821723829906,0101000020E610000054ECA7CE53DD62401CDBD83627E240C0
Lalor Park - Kings Langley,Park,Park,150.9173863038829,-33.75420378363403,0101000020E6100000369F853A5BDD6240239DE4BF89E040C0
Lalor Park - Kings Langley,KINGSFORD RESERVE,Park,150.92470163738102,-33.75169324226197,0101000020E61000007E63E32797DD6240D711F27B37E040C0
Lalor Park - Kings Langley,STUART MOULD PARK,Park,150.92843635442867,-33.758207482757,0101000020E6100000095628C0B5DD62400C035BF10CE140C0
Lalor Park - Kings Langley,Park,Park,150.93378664929398,-33.7554004572234,0101000020E610000017058A94E1DD6240389451F6B0E040C0
Lalor Park - Kings Langley,MACDONALD PARK,Park,150.93476671665883,-33.75974329955112,0101000020E61000000CAEE39BE9DD6240AE76B8443FE140C0
Lalor Park - Kings Langley,Park,Park,150.93283309660308,-33.75322904057065,0101000020E61000002C51CBC4D9DD6240FFD227CF69E040C0
Lalor Park - Kings Langley,PEARCE RESERVE,Park,150.94395753933247,-33.7525404099991,0101000020E6100000DC0771E634DE6240AAEE803E53E040C0
Lalor Park - Kings Langley,Park,Park,150.94303060102845,-33.76037873746621,0101000020E61000006CD1824E2DDE6240DEFE281754E140C0
Lalor Park - Kings Langley,Park,Park,150.94424899413315,-33.760405199193876,0101000020E6100000A6A2AA4937DE62407F1F23F554E140C0
Lalor Park - Kings Langley,CAMILLO PARK,Park,150.9339582733273,-33.76674151415066,0101000020E61000009FF875FCE2DD62409DE1FF9524E240C0
Lalor Park - Kings Langley,LINDEN PARK,Park,150.93669002854682,-33.7668740645481,0101000020E610000022E35D5DF9DD62403DB1E9ED28E240C0
Lalor Park - Kings Langley,Park,Park,150.93862610459655,-33.76525654093969,0101000020E610000040CD9C3909DE62406A3124EDF3E140C0
Lalor Park - Kings Langley,Park,Park,150.9303247595813,-33.76488541440998,0101000020E6100000F2216E38C5DD6240050AE8C3E7E140C0
Lalor Park - Kings Langley,Park,Park,150.93096128333377,-33.76491192104741,0101000020E61000005838516FCADD62400D9C42A2E8E140C0
Lalor Park - Kings Langley,Park,Park,150.9302187251401,-33.769181070416444,0101000020E610000050530F5AC4DD624009127B8674E240C0
Lalor Park - Kings Langley,Park,Park,150.92348219594246,-33.7706660786703,0101000020E61000005BC0882A8DDD62404403A22FA5E240C0
Lalor Park - Kings Langley,Park,Park,150.92250085476644,-33.76812051455487,0101000020E61000002038832085DD62402FB3E4C551E240C0
Lalor Park - Kings Langley,CHRISTIES CORNER,Park,150.9223682149215,-33.76493854417608,0101000020E6100000A6BE580A84DD6240D3579781E9E140C0
Lalor Park - Kings Langley,Park,Park,150.93480704562526,-33.77262814193886,0101000020E6100000FD2077F0E9DD62405FCC9C7AE5E240C0
Lalor Park - Kings Langley,Park,Park,150.92289877519968,-33.7756246479634,0101000020E61000000920036388DD6240B67C20AB47E340C0
Lalor Park - Kings Langley,Park,Park,150.9406152028077,-33.76196849086964,0101000020E6100000BEC50D8519DE62400D6FFA2E88E140C0
Lalor Park - Kings Langley,NOAKES PARK,Park,150.93525779957355,-33.76279055908831,0101000020E6100000EACFC3A1EDDD6240AD7DFC1EA3E140C0
Lalor Park - Kings Langley,Park,Park,150.93406433471796,-33.764434588976755,0101000020E6100000283FE3DAE3DD62400ECB1BFED8E140C0
Lalor Park - Kings Langley,SOLDIERS SETTLEMENT RESERVE,Park,150.93553579940792,-33.77998947830923,0101000020E610000037D6C5E8EFDD6240F847FAB1D6E340C0
Lalor Park - Kings Langley,Park,Park,150.9277237802026,-33.7780636929573,0101000020E610000022F6C7E9AFDD624072BA519797E340C0
Lalor Park - Kings Langley,Park,Park,150.96568846697835,-33.75577196016796,0101000020E61000007CF97FEBE6DE6240DE13B622BDE040C0
Lalor Park - Kings Langley,PIED PIPER PLAYGROUND,Park,150.95283550035222,-33.76348895169922,0101000020E6100000610FE0A07DDE6240E7338701BAE140C0
Lalor Park - Kings Langley,BRUCE COLE RESERVE,Park,150.9652079976587,-33.771151738745125,0101000020E610000004F9E1FBE2DE6240F914A519B5E240C0
Lalor Park - Kings Langley,ARTHUR WRIGHT PARK,Park,150.96108385015566,-33.77019391925008,0101000020E61000003C24EB32C1DE6240EB60DFB695E240C0
Lalor Park - Kings Langley,GABBIE STADIUM,Sports Field,150.939911852483,-33.76707731401704,0101000020E6100000317105C213DE6240759AE4962FE240C0
Lalor Park - Kings Langley,NETBALL COURTS,Sports Court,150.93962427930262,-33.77713098187665,0101000020E61000003CC4EF6611DE62402EEF2B0779E340C0
Lalor Park - Kings Langley,BLACKTOWN HOSPITAL,General Hospital,150.91693003697367,-33.775523363467826,0101000020E6100000B430A97D57DD62406AB07D5944E340C0
Lalor Park - Kings Langley,INTERNATIONAL PEACE PARK,Park,150.92916759115477,-33.77317081194139,0101000020E61000006910ACBDBBDD624049C1DB42F7E240C0
Lalor Park - Kings Langley,MCCOY PARK,Sports Field,150.9506369770006,-33.77953576659404,0101000020E6100000C0D23C9E6BDE6240B6CAF7D3C7E340C0
Lalor Park - Kings Langley,ORANA PARK,Park,150.92133781405298,-33.77841916811887,0101000020E61000009F7D70997BDD624036D3423DA3E340C0
Lalor Park - Kings Langley,TENNIS COURTS,Sports Court,150.921540194605,-33.77892477259658,0101000020E6100000E5B8DC417DDD62405C2C94CEB3E340C0
Lalor Park - Kings Langley,POULTRY RESEARCH STATION,Research Station,150.93059628795228,-33.780315067976275,0101000020E610000017D1DD71C7DD62405EC4385DE1E340C0
Lalor Park - Kings Langley,CATHOLIC CHURCH,Place Of Worship,150.92560866722172,-33.76054374672767,0101000020E6100000915311969EDD6240B3AF5B7F59E140C0
Lalor Park - Kings Langley,PRESBYTERIAN CHURCH,Place Of Worship,150.9327187159146,-33.75952030195376,0101000020E61000000DA7EBD4D8DD62400DC514F637E140C0
Lalor Park - Kings Langley,CAVANAGH RESERVE,Park,150.9241706647762,-33.7595470238463,0101000020E61000005DA45BCE92DD6240D5983DD638E140C0
Lalor Park - Kings Langley,FRED VASSEL FIELDS,Sports Field,150.9242504351734,-33.74884551077904,0101000020E6100000460CA67593DD6240B546712BDADF40C0
Lalor Park - Kings Langley,ANGLICAN CHURCH,Place Of Worship,150.9367983761498,-33.77641396222382,0101000020E61000004C909640FADD62405DF45F8861E340C0
Lalor Park - Kings Langley,Place Of Worship,Place Of Worship,150.93807567987255,-33.77592963794962,0101000020E610000038C749B704DE6240D17E91A951E340C0
Lalor Park - Kings Langley,CATHOLIC CHURCH,Place Of Worship,150.93402475943816,-33.777890132118145,0101000020E61000001E6EE487E3DD62400EAA62E791E340C0
Lalor Park - Kings Langley,Park,Park,150.95238869988947,-33.76555544493275,0101000020E61000005EE3DDF779DE624065A187B8FDE140C0
Lalor Park - Kings Langley,Park,Park,150.96294241417286,-33.77939366950386,0101000020E6100000B8199C6CD0DE6240409DF82BC3E340C0
Lalor Park - Kings Langley,BUCKLEY PARK,Park,150.9650497746928,-33.77494447005806,0101000020E61000002BAA10B0E1DE6240C68E616131E340C0
Lalor Park - Kings Langley,Park,Park,150.95153392145562,-33.75334952564854,0101000020E6100000F83544F772DE62400D8FDBC16DE040C0
Lalor Park - Kings Langley,MELODY GARDENS,Park,150.95398962169327,-33.76204472000104,0101000020E6100000AC3C3E1587DE62403A3F6FAE8AE140C0
Lalor Park - Kings Langley,COL SUTTON RESERVE,Park,150.96358139391924,-33.76339279535832,0101000020E61000005ABDA5A8D5DE62407308E9DAB6E140C0
Lalor Park - Kings Langley,WHEELER PARK,Park,150.92639331058814,-33.764700308327036,0101000020E6100000B2869503A5DD6240BCC01FB3E1E140C0
Lalor Park - Kings Langley,BAPTIST CHURCH,Place Of Worship,150.91650516259034,-33.764438739669394,0101000020E61000001A7EA20254DD62407756ED20D9E140C0
Lalor Park - Kings Langley,GALAH RESERVE,Park,150.92789520750492,-33.753548427420824,0101000020E6100000294B4A51B1DD6240C2DC5D4674E040C0
Lalor Park - Kings Langley,TENNIS COURTS,Sports Court,150.94255546500673,-33.753684016403035,0101000020E6100000D71B146A29DE624007FCC4B778E040C0
Lalor Park - Kings Langley,Park,Park,150.94223762039792,-33.74898087639657,0101000020E6100000709582CF26DE6240F2B9F89ADEDF40C0
Lalor Park - Kings Langley,MAURICE BOLTON RESERVE,Park,150.91696046111568,-33.773793262005924,0101000020E6100000F10677BD57DD62401E1759A80BE340C0
Lalor Park - Kings Langley,Park,Park,150.94224796449842,-33.74794967778668,0101000020E6100000C90734E526DE6240E292A6D0BCDF40C0
Lalor Park - Kings Langley,KATE BIRD PARK,Park,150.96642313706548,-33.74761141276939,0101000020E610000068F936F0ECDE6240FEFA13BBB1DF40C0
Lalor Park - Kings Langley,DISCOVERY PARK,Park,150.92800211241362,-33.743990548191206,0101000020E6100000EF6D7C31B2DD6240D68110153BDF40C0
Lalor Park - Kings Langley,Park,Park,150.91790492375426,-33.779994713146095,0101000020E6100000958B257A5FDD6240F801E4DDD6E340C0
Lalor Park - Kings Langley,TWIN GUMS PARK,Park,150.93894747239793,-33.7589600716007,0101000020E61000008DD391DB0BDE6240563F879A25E140C0
Lalor Park - Kings Langley,Parking Area,Parking Area,150.91798804666414,-33.77109625164548,0101000020E610000053D1772860DD624059712F48B3E240C0
Lalor Park - Kings Langley,Parking Area,Parking Area,150.9353780956682,-33.77349511106369,0101000020E610000045490B9EEEDD624035D146E301E340C0
Lalor Park - Kings Langley,Parking Area,Parking Area,150.93747001953832,-33.77493835678803,0101000020E6100000B95C20C1FFDD62400869192E31E340C0
Lalor Park - Kings Langley,Parking Area,Parking Area,150.93519997232372,-33.77481536176409,0101000020E6100000370B7E28EDDD62408B9B57262DE340C0
Lalor Park - Kings Langley,Parking Area,Parking Area,150.9327463076685,-33.77570957219111,0101000020E6100000D5DCC80ED9DD6240A3E085734AE340C0
Lalor Park - Kings Langley,Parking Area,Parking Area,150.93319520569747,-33.77451609954353,0101000020E6100000262831BCDCDD6240EAE1F25723E340C0
Lalor Park - Kings Langley,Parking Area,Parking Area,150.94001019644702,-33.774313764518396,0101000020E6100000B074439014DE62407EB9A3B61CE340C0
Lalor Park - Kings Langley,Parking Area,Parking Area,150.9430834704762,-33.77643258919294,0101000020E6100000FEE262BD2DDE6240EF10A12462E340C0
Lalor Park - Kings Langley,Parking Area,Parking Area,150.94228765745757,-33.77345582178549,0101000020E61000008D06723827DE624018BCB19900E340C0
Lalor Park - Kings Langley,Park,Park,150.9254178057666,-33.749872039311036,0101000020E6100000EB5CCD059DDD62404B8396CEFBDF40C0
Lalor Park - Kings Langley,BAPTIST CHURCH,Place Of Worship,150.9259841234846,-33.75302727968843,0101000020E610000069DF74A9A1DD6240FBA0A93263E040C0
Lalor Park - Kings Langley,Sports Field,Sports Field,150.92674458240694,-33.75381039080584,0101000020E6100000DB2541E4A7DD6240B2F2DFDB7CE040C0
Lalor Park - Kings Langley,BAPTIST CHURCH,Place Of Worship,150.93172423418267,-33.75748910903011,0101000020E6100000915657AFD0DD6240252E3367F5E040C0
Lalor Park - Kings Langley,FOURSQUARE GOSPEL CHURCH,Place Of Worship,150.91752935969353,-33.76643998339341,0101000020E61000001D2088665CDD6240C08293B41AE240C0
Lalor Park - Kings Langley,Parking Area,Parking Area,150.9372073755054,-33.76960445690634,0101000020E6100000B46B529AFDDD624061A21A6682E240C0
Lalor Park - Kings Langley,Parking Area,Parking Area,150.9165790256663,-33.777331434578414,0101000020E6100000F66D899D54DD624062D5B0987FE340C0
Lalor Park - Kings Langley,Parking Area,Parking Area,150.91672670780065,-33.77763856743595,0101000020E6100000F4AB3FD355DD6240739F1BA989E340C0
Lalor Park - Kings Langley,Swimming Pool Facility,Swimming Pool Facility,150.9175015990563,-33.77196902940663,0101000020E61000002F3F502C5CDD6240C56993E1CFE240C0
Lalor Park - Kings Langley,Swimming Pool Facility,Swimming Pool Facility,150.9176572492473,-33.77231731572546,0101000020E61000008B4EBC725DDD62407296364BDBE240C0
Lalor Park - Kings Langley,NETBALL COURTS,Sports Court,150.91863248547256,-33.772135230533785,0101000020E6100000BB44F46F65DD6240B39DC553D5E240C0
Lalor Park - Kings Langley,Parking Area,Parking Area,150.91915995285115,-33.77310147597724,0101000020E61000003C2922C269DD6240E2E739FDF4E240C0
Lalor Park - Kings Langley,BEST ROAD PARK,Park,150.93911495519774,-33.777580274775026,0101000020E61000004878CE3A0DDE624033161DC087E340C0
Lalor Park - Kings Langley,Park,Park,150.91722154567324,-33.75958616938736,0101000020E61000004DBBFFE059DD62409E019E1E3AE140C0
Lalor Park - Kings Langley,CHIFLEY PARK,Park,150.93190411463178,-33.76246025465411,0101000020E61000003EEB9328D2DD62409F1E314C98E140C0
Lalor Park - Kings Langley,LALOR PARK LIBRARY,Library,150.93193694086887,-33.76212066303405,0101000020E6100000EA5E6B6DD2DD624025AB7D2B8DE140C0
Lalor Park - Kings Langley,ANGLICAN CHURCH,Place Of Worship,150.93166232947982,-33.76349615014596,0101000020E6100000FE80842DD0DD6240D9BFE93DBAE140C0
Lalor Park - Kings Langley,TENNIS COURTS,Sports Court,150.92584912556205,-33.75967821193668,0101000020E6100000376A588EA0DD62403BE0B9223DE140C0
Lalor Park - Kings Langley,Sports Field,Sports Field,150.9215201864287,-33.757631197637515,0101000020E610000015EAE6177DDD62402724200FFAE040C0
Lalor Park - Kings Langley,Sports Field,Sports Field,150.9200680489921,-33.756444007519235,0101000020E610000080908C3271DD624070C64028D3E040C0
Lalor Park - Kings Langley,ASHLEY-BROWN PARK,Park,150.93982499168317,-33.763726317903675,0101000020E6100000C467DC0B13DE6240D23EB3C8C1E140C0
Lalor Park - Kings Langley,Parking Area,Parking Area,150.94126010694342,-33.76318620265776,0101000020E61000003F0B84CD1EDE62403596E215B0E140C0
Lalor Park - Kings Langley,Parking Area,Parking Area,150.9410840012151,-33.7687456358735,0101000020E61000003F00325C1DDE62407C82CA4166E240C0
Lalor Park - Kings Langley,THE HILLS SHOPPING CENTRE,Shopping Centre,150.93264320353177,-33.7749771794429,0101000020E61000002E408F36D8DD6240426DC47332E340C0
Lalor Park - Kings Langley,BANKS RESERVE,Park,150.94055103884187,-33.75459511550402,0101000020E61000006E017EFE18DE6240D2679F9296E040C0
Lalor Park - Kings Langley,ENID CHALKER RESERVE,Park,150.94531958922076,-33.75959842351012,0101000020E610000015FFDD0E40DE6240D98869853AE140C0
Lalor Park - Kings Langley,FRIENDSHIP PARK,Park,150.9310194950625,-33.74913335320802,0101000020E61000006B6765E9CADD6240862F0A9AE3DF40C0
Lalor Park - Kings Langley,LYNWOOD PARK,Park,150.91869006119407,-33.75546213860484,0101000020E6100000A4FFB2E865DD62404656BDFBB2E040C0
Lalor Park - Kings Langley,Sports Field,Sports Field,150.91921846102397,-33.755930748653235,0101000020E6100000477FD53C6ADD6240D3C0B956C2E040C0
Lalor Park - Kings Langley,PEMULWUY PARK,Park,150.96300064476617,-33.77490446386116,0101000020E61000008669BAE6D0DE624070E7C81130E340C0
Lalor Park - Kings Langley,SCARBOROUGH PARK,Park,150.9511884320923,-33.758509981265846,0101000020E61000007005B92270DE6240FA9CE5DA16E140C0
Lalor Park - Kings Langley,SIRIUS RESERVE,Park,150.9507187730988,-33.75582042838547,0101000020E6100000E2C4C6496CDE62403BC84AB9BEE040C0
Lalor Park - Kings Langley,SOLANDER RESERVE,Park,150.94511961166214,-33.755413087622465,0101000020E6100000B5DC7B6B3EDE624089274560B1E040C0
Lalor Park - Kings Langley,REYNOLDS PARK,Picnic Area,150.9644415954825,-33.78075464364688,0101000020E6100000FBEF9EB4DCDE6240ED54A6C4EFE340C0
Lalor Park - Kings Langley,SUE SAVAGE PARK,Park,150.95872026316715,-33.78008578775741,0101000020E6100000180A1ED6ADDE6240093FE1D9D9E340C0
Lalor Park - Kings Langley,ADVENTIST NURSING HOME,Nursing Home,150.91833780392338,-33.74214966952512,0101000020E61000000151F60563DD62407EACA7C2FEDE40C0
Lalor Park - Kings Langley,ALLEN ROBERTSON RESERVE,Park,150.91942640753751,-33.74687067474458,0101000020E61000007AEEEDF06BDD6240492F517599DF40C0
Lalor Park - Kings Langley,MORGAN POWER RESERVE,Park,150.92311374923366,-33.748023263268564,0101000020E61000004A6ED8258ADD62405E31EE39BFDF40C0
Lalor Park - Kings Langley,KINGS LANGLEY SHOPPING CENTRE,Shopping Centre,150.92343579795795,-33.74326245739413,0101000020E6100000EC053BC98CDD62401B6D653923DF40C0
Lalor Park - Kings Langley,TWIN WILLOW RESERVE,Park,150.9196722351083,-33.74280911370425,0101000020E61000008A9A77F46DDD6240E743795E14DF40C0
Lalor Park - Kings Langley,GOLDEN GROVE PARK,Park,150.9233980148172,-33.74426042655807,0101000020E6100000995AFE798CDD624010E3F7EC43DF40C0
Lalor Park - Kings Langley,RESOLUTION RESERVE,Park,150.92711846122816,-33.74534913784518,0101000020E6100000C5CF55F4AADD6240CC92BD9967DF40C0
Lalor Park - Kings Langley,LADY PENHRYN PARK,Park,150.9316387810429,-33.743805630046225,0101000020E6100000770822FCCFDD62408AD0DB0535DF40C0
Lalor Park - Kings Langley,ENDEAVOUR PARK,Park,150.9322315864854,-33.74694083564652,0101000020E6100000180856D7D4DD62400993DEC19BDF40C0
Lalor Park - Kings Langley,BORROWDALE PARK,Park,150.93844944191278,-33.74769778992275,0101000020E6100000E0BE1FC707DE62403E81A98FB4DF40C0
Lalor Park - Kings Langley,NSW SOCCER FEDERATION HEADQUARTERS,Sports Centre,150.94454834602354,-33.73984314780318,0101000020E61000002FF573BD39DE6240FFFD252EB3DE40C0
Lalor Park - Kings Langley,BELLA VISTA OVAL,Park,150.95648440493406,-33.74376296128322,0101000020E61000006DCA2E859BDE62400158ED9F33DF40C0
Lalor Park - Kings Langley,SEVEN HILLS POST OFFICE,Post Office,150.93232174679724,-33.77501185189987,0101000020E6100000007B6A94D5DD62400FF69E9633E340C0
Lalor Park - Kings Langley,KINGS LANGLEY PRE-SCHOOL,Child Care Centre,150.9425928807366,-33.755999188076416,0101000020E610000099868BB829DE62409E4BD694C4E040C0
Lalor Park - Kings Langley,SOLANDER SHOPPING CENTRE,Shopping Centre,150.9424346398044,-33.75526247497745,0101000020E61000007A92B06C28DE62404BF6D670ACE040C0
Lalor Park - Kings Langley,Parking Area,Parking Area,150.94284846131643,-33.7554223115246,0101000020E6100000044E89D02BDE62405C55A5ADB1E040C0
Lalor Park - Kings Langley,BLACKTOWN NURSING HOME,Nursing Home,150.91863128442503,-33.765838473500004,0101000020E610000004766F6D65DD6240BDD9BEFE06E240C0
Lalor Park - Kings Langley,LALOR PARK POST OFFICE,Post Office,150.93051199992752,-33.761497119966684,0101000020E61000002D071AC1C6DD6240A720D5BC78E140C0
Lalor Park - Kings Langley,LALOR PARK SHOPPING CENTRE,Shopping Centre,150.93063024337178,-33.762176248550745,0101000020E6100000697E13B9C7DD62401EA8C6FD8EE140C0
Lalor Park - Kings Langley,Parking Area,Parking Area,150.9310494439957,-33.761957912944595,0101000020E6100000751D3428CBDD624042833ED687E140C0
Lalor Park - Kings Langley,CLARKE RESERVE,Park,150.95831044814133,-33.74973273880985,0101000020E6100000D445AC7AAADE6240E3F60C3EF7DF40C0
Lalor Park - Kings Langley,SEVEN HILLS,Suburb,150.93446978482993,-33.77519706563415,0101000020E61000003B9E2D2DE7DD62404B6D4EA839E340C0
Lalor Park - Kings Langley,LALOR PARK,Suburb,150.93034370954223,-33.76133783021831,0101000020E6100000BED02B60C5DD624064FF9C8473E140C0
Lalor Park - Kings Langley,PYES CROSSING,Urban Place,150.9588381311156,-33.76777352847357,0101000020E610000094E94DCDAEDE6240A6C3296746E240C0
Lalor Park - Kings Langley,JIM SOUTHEE COMMUNITY CENTRE,Community Facility,150.92465155540566,-33.74336697783603,0101000020E610000036D5DBBE96DD6240B65D2DA626DF40C0
Lalor Park - Kings Langley,KINGS LANGLEY,Suburb,150.93442247325885,-33.75002232008201,0101000020E61000006A69F5C9E6DD6240DA023CBB00E040C0
Lalor Park - Kings Langley,Sports Field,Sports Field,150.92008015019732,-33.74709529400137,0101000020E61000007B59ED4B71DD62409E5D8FD1A0DF40C0
Lalor Park - Kings Langley,Sports Field,Sports Field,150.92204332482598,-33.747545760965544,0101000020E6100000EDB3006181DD624023CE5994AFDF40C0
Lalor Park - Kings Langley,Sports Field,Sports Field,150.92289415875746,-33.74451724480695,0101000020E61000000CB1545988DD62407FE050574CDF40C0
Lalor Park - Kings Langley,KNIGHTSBRIDGE RESERVE,Park,150.9399671428904,-33.74296181437903,0101000020E6100000EC40F93514DE6240A6776B5F19DF40C0
Lalor Park - Kings Langley,LAING RESERVE,Park,150.9429786092348,-33.745738353656336,0101000020E6100000B7EF79E12CDE6240D629B85A74DF40C0
Lalor Park - Kings Langley,KINGS LANGLEY POST OFFICE,Post Office,150.92352146669336,-33.74312066543016,0101000020E61000004313E47C8DDD62408D80F5931EDF40C0
Lalor Park - Kings Langley,Sports Field,Sports Field,150.93400553099949,-33.74040144207804,0101000020E6100000A13D915FE3DD624076D17579C5DE40C0
Lalor Park - Kings Langley,MUNRO RESERVE,Park,150.94711300292198,-33.763763079237826,0101000020E610000052A5EDBF4EDE6240FF9B13FDC2E140C0
Lalor Park - Kings Langley,MUJAR BIJA RESERVE,Park,150.9171446885125,-33.7794207585322,0101000020E6100000905BD13F59DD624012DC350FC4E340C0
Lalor Park - Kings Langley,COURTNEYS PARK,Park,150.92912551406693,-33.767323832415826,0101000020E61000007E196E65BBDD62406CD5D6AA37E240C0
Lalor Park - Kings Langley,BAPTIST CHURCH,Place Of Worship,150.9339949632185,-33.77642479074616,0101000020E6100000DFB46749E3DD62407A0736E361E340C0
Lalor Park - Kings Langley,Place Of Worship,Place Of Worship,150.93304453935968,-33.77373937010689,0101000020E61000005CC83880DBDD62404D1E45E409E340C0
Lalor Park - Kings Langley,SEVEN HILLS NURSING HOME,Nursing Home,150.94908002323834,-33.760822930000224,0101000020E61000000FA311DD5EDE6240ED3251A562E140C0
Lalor Park - Kings Langley,SYDNEY WESTERN SES,SES Facility,150.95287999750153,-33.775020000679376,0101000020E6100000034931FE7DDE6240F854FADA33E340C0
Lalor Park - Kings Langley,BELLA VISTA,Historic Site,150.953340943735,-33.7413074675155,0101000020E6100000F2E8DDC481DE62403CA1C029E3DE40C0
Lalor Park - Kings Langley,GRANTHAM HERITAGE PARK,Park,150.93060587926465,-33.780663094874406,0101000020E6100000061DFB85C7DD624001D7AEC4ECE340C0
Lalor Park - Kings Langley,NORWEST PRIVATE HOSPITAL,General Hospital,150.9544494647957,-33.74541087276894,0101000020E61000006E9F9AD98ADE62400E509C9F69DF40C0
Lalor Park - Kings Langley,EXETER FARM RESERVE,Park,150.9338656660047,-33.73971501676219,0101000020E61000001ECB3F3AE2DD624046AD4EFBAEDE40C0
Lalor Park - Kings Langley,SEVEN HILLS WEST PUBLIC SCHOOL,Primary School,150.9213841042396,-33.76562145559201,0101000020E61000006D5884FA7BDD62401A7144E2FFE140C0
Lalor Park - Kings Langley,ST BERNADETTE'S PRIMARY SCHOOL,Primary School,150.92634751357667,-33.7614343719845,0101000020E61000005E718AA3A4DD6240A3DC76AE76E140C0
Lalor Park - Kings Langley,LALOR PARK PUBLIC SCHOOL,Primary School,150.93142152079648,-33.76078687689151,0101000020E610000091538134CEDD6240CDBCE17661E140C0
Lalor Park - Kings Langley,SEVEN HILLS PUBLIC SCHOOL,Primary School,150.93682291003853,-33.76902227362026,0101000020E61000004A180A74FADD62401B8C65526FE240C0
Lalor Park - Kings Langley,LYNWOOD PARK PUBLIC SCHOOL,Primary School,150.92626872952954,-33.75373713668078,0101000020E6100000619451FEA3DD62408EE95F757AE040C0
Lalor Park - Kings Langley,BERT OLDFIELD PUBLIC SCHOOL,Primary School,150.92563365835292,-33.777234650128676,0101000020E61000007C567ACA9EDD624072CFCD6C7CE340C0
Lalor Park - Kings Langley,OUR LADY OF LOURDES PRIMARY SCHOOL,Primary School,150.93337796345045,-33.77844206264083,0101000020E6100000757A763BDEDD6240C36F50FDA3E340C0
Lalor Park - Kings Langley,MATTHEW PEARCE PUBLIC SCHOOL,Primary School,150.96307681112245,-33.75789609189535,0101000020E6100000D2E97586D1DE6240763A38BD02E140C0
Lalor Park - Kings Langley,KINGS LANGLEY PUBLIC SCHOOL,Primary School,150.92478571070848,-33.74514150521079,0101000020E6100000A2E933D897DD6240E3E2FDCB60DF40C0
Lalor Park - Kings Langley,SEVEN HILLS NORTH PUBLIC SCHOOL,Primary School,150.95494300370436,-33.760332815535236,0101000020E6100000894EA1E48EDE62405466F09552E140C0
Lalor Park - Kings Langley,SEVEN HILLS HIGH SCHOOL,High School,150.94387070458387,-33.763338822984,0101000020E6100000E3FA553034DE6240E03D2816B5E140C0
Lalor Park - Kings Langley,WILLIAM ROSE SCHOOL,Special School,150.93659425735774,-33.76882406191262,0101000020E6100000221F8594F8DD62407325ADD368E240C0
Lalor Park - Kings Langley,VARDYS ROAD PUBLIC SCHOOL,Primary School,150.94251713479184,-33.75741794402064,0101000020E610000038BBB11929DE6240717C3912F3E040C0
Lalor Park - Kings Langley,SEVEN HILLS WEST POST OFFICE,Post Office,150.93562731258248,-33.771527078093705,0101000020E61000002899B0A8F0DD624009323866C1E240C0
Lalor Park - Kings Langley,CRESTWOOD LIONS PARK,Park,150.95930951038287,-33.75363018804046,0101000020E6100000C2BADBA9B2DE6240C07439F476E040C0
Lalor Park - Kings Langley,MULLAUNA VILLAGE,Retirement Village,150.91661549996178,-33.7781007677183,0101000020E6100000F66A07EA54DD6240DA2B53CE98E340C0
Lalor Park - Kings Langley,SEVEN HILLS BUS INTERCHANGE,Bus Interchange,150.9362384229956,-33.773540898999954,0101000020E6100000CA0048AAF5DD624060A95F6303E340C0
Lalor Park - Kings Langley,METS72S1,Roadside Emergency Telephone,150.92708602036834,-33.741205950485785,0101000020E6100000F2414DB0AADD6240F1772AD6DFDE40C0
Lalor Park - Kings Langley,METS72N1,Roadside Emergency Telephone,150.9279868823763,-33.74094064311687,0101000020E61000008BDD8B11B2DD62406A3B9B24D7DE40C0
Lalor Park - Kings Langley,METS76S1,Roadside Emergency Telephone,150.94388787049067,-33.747833934917324,0101000020E610000027DB555434DE62408AA7BA05B9DF40C0
Lalor Park - Kings Langley,METS76N1,Roadside Emergency Telephone,150.94425858544545,-33.74744869862461,0101000020E610000093EEC75D37DE6240E6032266ACDF40C0
Lalor Park - Kings Langley,METS77S1,Roadside Emergency Telephone,150.9494419167371,-33.75136345749005,0101000020E6100000CCBA03D461DE624025AA82AD2CE040C0
Lalor Park - Kings Langley,METS77N1,Roadside Emergency Telephone,150.94938205570153,-33.750655974712004,0101000020E6100000B7147A5661DE6240B0F7B67E15E040C0
Lalor Park - Kings Langley,METS80S1,Roadside Emergency Telephone,150.95929345659042,-33.7599863124918,0101000020E610000053EA3088B2DE6240ABC7423B47E140C0
Lalor Park - Kings Langley,METS80N1,Roadside Emergency Telephone,150.95967036453084,-33.75978785882114,0101000020E610000036D39F9EB5DE624070C482BA40E140C0
Lalor Park - Kings Langley,METS81S1,Roadside Emergency Telephone,150.9637005159158,-33.76607386766743,0101000020E6100000E5DF76A2D6DE6240D6F95FB50EE240C0
Lalor Park - Kings Langley,METS81N1,Roadside Emergency Telephone,150.9643709322056,-33.76632192806575,0101000020E610000028E16D20DCDE624002A041D616E240C0
Lalor Park - Kings Langley,SEVEN HILLS TOONGABBIE RSL CLUB,Club,150.93744096802206,-33.77834569086378,0101000020E6100000BB723384FFDD6240099FE3D4A0E340C0
Lalor Park - Kings Langley,BLACKTOWN TRANSITIONAL AGED CARE SERVICE,Nursing Home,150.91755665500347,-33.77561002760391,0101000020E6100000F22EC69F5CDD624015817B3047E340C0
Lalor Park - Kings Langley,SEVEN HILLS WEST PUBLIC SCHOOL PRESCHOOL,Preschool,150.9220654027207,-33.76570984958991,0101000020E6100000ACAE4D8F81DD62405C1BC5C702E240C0
Lalor Park - Kings Langley,LALOR PARK PUBLIC SCHOOL PRESCHOOL,Preschool,150.931680884182,-33.76021818423875,0101000020E6100000D7FB6D54D0DD6240A29057D44EE140C0
Lalor Park - Kings Langley,KINGS LANGLEY VILLAGE,Retirement Village,150.919341160112,-33.74193487445519,0101000020E61000008711273E6BDD624001C6D2B8F7DE40C0
Lalor Park - Kings Langley,FRANCESCO CRESCENT RESERVE,Park,150.95318404668245,-33.75123569321366,0101000020E61000003E72D47B80DE624064F8BE7D28E040C0
Lalor Park - Kings Langley,VILLAGE GREEN COMMUNITY CENTRE,Community Facility,150.9595675927707,-33.74316815627754,0101000020E61000000DA818C7B4DE62400152572220DF40C0
Lalor Park - Kings Langley,LALOR PARK COMMUNITY CENTRE,Community Facility,150.93193694086887,-33.76212066303405,0101000020E6100000EA5E6B6DD2DD624025AB7D2B8DE140C0
Lalor Park - Kings Langley,SEVEN HILLS COMMUNITY CENTRE,Community Facility,150.9363053214331,-33.772042704040736,0101000020E610000008D49336F6DD6240357C9A4BD2E240C0
Lalor Park - Kings Langley,PLAYGROUND,Park,150.9494723139297,-33.77920639433456,0101000020E61000002319C31362DE62402140FE08BDE340C0
Lalor Park - Kings Langley,SEVEN HILLS POST BUSINESS CENTRE,Post Office,150.93958272233928,-33.774288190443514,0101000020E6100000AF0AC90F11DE624024D11BE01BE340C0
Lalor Park - Kings Langley,1ST TOONGABBIE WEST SCOUT HALL,Community Facility,150.953051066376,-33.781080367788995,0101000020E61000001730F3647FDE6240C7990571FAE340C0
Lalor Park - Kings Langley,TENNIS COURTS,Sports Court,150.9558511537441,-33.74255115716184,0101000020E610000098A5285596DE6240FCCE93EA0BDF40C0
Lalor Park - Kings Langley,Parking Area,Parking Area,150.93443862586597,-33.739575259025685,0101000020E6100000D546D5EBE6DD62401839EF66AADE40C0
Lalor Park - Kings Langley,MOUNT CARMEL PARK,Park,150.94876988707304,-33.76208642971636,0101000020E6100000118DAA525CDE6240B82D520C8CE140C0
Lalor Park - Kings Langley,BRAHMS RESERVE,Park,150.9545671710473,-33.76596514363335,0101000020E610000078AF73D08BDE6240FEE354250BE240C0
Lalor Park - Kings Langley,Sewage Works,Sewage Works,150.94784882914087,-33.77677868823592,0101000020E6100000C85611C754DE6240FE19EB7B6DE340C0
Lalor Park - Kings Langley,Filtration Plant,Filtration Plant,150.95676761320036,-33.739625914685774,0101000020E610000029121DD79DDE6240BC6CDD0FACDE40C0
Lalor Park - Kings Langley,REFALO RESERVE,Park,150.94693156299752,-33.74364183153957,0101000020E6100000FCD36B434DDE62403333D1A72FDF40C0
Lalor Park - Kings Langley,NORWEST DAY HOSPITAL,General Hospital,150.95377216471584,-33.74470558701291,0101000020E610000045E9334D85DE624039AF3E8352DF40C0
Lalor Park - Kings Langley,SEVEN HILLS RAILWAY STATION,Railway Station,150.93611718546651,-33.77433390627177,0101000020E6100000AC1907ACF4DD624083CF995F1DE340C0
Lalor Park - Kings Langley,SOPHIA DOYLE RESERVE,Park,150.96674946177046,-33.75182253850767,0101000020E61000005A37919CEFDE6240A0A48FB83BE040C0
Lalor Park - Kings Langley,SIERRA PLACE RESERVE,Park,150.96057203322584,-33.766627922724595,0101000020E610000008858F01BDDE6240BA2620DD20E240C0
Lalor Park - Kings Langley,BELLA VISTA VILLAGE GREEN,Park,150.9607821940866,-33.74297025902325,0101000020E6100000CBC54CBABEDE6240E83342A619DF40C0
Lalor Park - Kings Langley,FRANCESCO CRESCENT RESERVE,Park,150.9526557995662,-33.74873174027472,0101000020E610000069EF03287CDE624082FA1071D6DF40C0
Lalor Park - Kings Langley,BELLA VISTA FARM PARK RESERVE,Park,150.95310528958487,-33.74005176661587,0101000020E61000002C0DAAD67FDE6240297B2B04BADE40C0
Lalor Park - Kings Langley,SOLAR AVENUE RESERVE,Park,150.95767433761392,-33.756238938857955,0101000020E6100000A608A744A5DE6240A72D0370CCE040C0
Lalor Park - Kings Langley,AMPHITHEATRE CIRCUIT RESERVE,Park,150.95932941076134,-33.75851079682357,0101000020E6100000F3A997D3B2DE62409402BDE116E140C0
Lalor Park - Kings Langley,MYEE CRESCENT SOUTH RESERVE,Park,150.9587624929687,-33.76077158409549,0101000020E6100000D3FDAD2EAEDE624047B598F660E140C0
Lalor Park - Kings Langley,WAROOGA AVENUE RESERVE,Park,150.9580164295488,-33.75918595495866,0101000020E61000002B3E1212A8DE6240A31060012DE140C0
Lalor Park - Kings Langley,MYEE CRESCENT RESERVE,Park,150.95840530484543,-33.76019412501535,0101000020E6100000F8139A41ABDE6240B1C6840A4EE140C0
Lalor Park - Kings Langley,BUNDARA WAY RESERVE,Park,150.9574083132206,-33.75971823569835,0101000020E61000006F46C216A3DE6240E73F78723EE140C0
Lalor Park - Kings Langley,RICHARDSON PLACE RESERVE,Park,150.9657496817751,-33.74174956194751,0101000020E6100000166BE06BE7DE624085314FA6F1DE40C0
Lalor Park - Kings Langley,WARDINGTON RISE RESERVE,Park,150.96542365351402,-33.74098111560871,0101000020E6100000155425C0E4DE62401B3F1D78D8DE40C0
Lalor Park - Kings Langley,BLACKTOWN SUPERSTATION AMBULANCE STATION,Ambulance Station,150.9190090619346,-33.77924990561729,0101000020E61000009337B18568DD6240C804FE75BEE340C0
Lalor Park - Kings Langley,COL SUTTON RESERVE SCOUT HALL,Community Facility,150.96448334019374,-33.762796376741356,0101000020E610000068752A0CDDDE624043CEC94FA3E140C0
Lalor Park - Kings Langley,JOYCE RESERVE,Park,150.9639538920299,-33.76094291299381,0101000020E6100000DA23D5B5D8DE624038B7CE9366E140C0
Lalor Park - Kings Langley,GUMBUYA AVENUE RESERVE,Park,150.96398302529292,-33.75096774217342,0101000020E610000008F1EDF2D8DE62402F7E02B61FE040C0
Lalor Park - Kings Langley,Parking Area,Parking Area,150.93806869726785,-33.77392436929861,0101000020E61000005605A5A804DE624084DB27F40FE340C0
Lalor Park - Kings Langley,HEADINGLEY RESERVE,Park,150.91796174668758,-33.75192774836711,0101000020E6100000122050F15FDD62408818202B3FE040C0
Blacktown - South,TIMBERTOP RESERVE,Park,150.91117604999943,-33.800190012909795,0101000020E6100000ACF4AC5A28DD6240460458A06CE640C0
Blacktown - South,BREWONGLE WALKWAY,Park,150.89843351955943,-33.7777475783165,0101000020E61000006A04A7F7BFDC6240CFB48E3B8DE340C0
Blacktown - South,Park,Park,150.90232411946172,-33.78160912649263,0101000020E61000005DEFD4D6DFDC62403F4592C40BE440C0
Blacktown - South,Park,Park,150.90089943813348,-33.78363579207507,0101000020E610000094F80E2BD4DC6240FF77792D4EE440C0
Blacktown - South,Park,Park,150.8990363645736,-33.78437526716535,0101000020E610000044F8E8E7C4DC62401B22A46866E440C0
Blacktown - South,Park,Park,150.8990363475056,-33.78281419860825,0101000020E610000075CEDFE7C4DC6240F6EE724133E440C0
Blacktown - South,Park,Park,150.89955689426324,-33.78149960459325,0101000020E610000010388A2BC9DC624050C8D52D08E440C0
Blacktown - South,Park,Park,150.89939247741344,-33.77930863692856,0101000020E61000004B98BBD2C7DC62409C8CAA62C0E340C0
Blacktown - South,GIRINYA RESERVE,Park,150.9017488293706,-33.787853407440906,0101000020E61000004C6B5C20DBDC62401C806561D8E440C0
Blacktown - South,Park,Park,150.89911857389677,-33.78536119714168,0101000020E61000009CC35094C5DC6240AEA238B786E440C0
Blacktown - South,Park,Park,150.91282506311197,-33.786715295818226,0101000020E61000001F21E8DC35DD6240B0663916B3E440C0
Blacktown - South,Park,Park,150.9112011848611,-33.78538846570963,0101000020E6100000C221638F28DD62407270F79B87E440C0
Blacktown - South,Park,Park,150.9082969540054,-33.78437516861121,0101000020E61000004F10C6C410DD6240657DD06766E440C0
Blacktown - South,Park,Park,150.9059955061801,-33.783909614743536,0101000020E6100000BAAB49EAFDDC6240F62B772657E440C0
Blacktown - South,Park,Park,150.90574889797338,-33.781910351499185,0101000020E6100000E1E51CE5FBDC6240E30B6EA315E440C0
Blacktown - South,Park,Park,150.91155731476894,-33.781855527668164,0101000020E610000097EB3E7A2BDD62400BC488D713E440C0
Blacktown - South,Park,Park,150.91084492020596,-33.778514303322105,0101000020E610000065003FA425DD62404B1E505BA6E340C0
Blacktown - South,Park,Park,150.9120778175092,-33.77670673431289,0101000020E61000007EB3D1BD2FDD6240793A53206BE340C0
Blacktown - South,Park,Park,150.91779834223908,-33.78488464498113,0101000020E6100000AD07A19A5EDD6240CCA99C1977E440C0
Blacktown - South,HIMALAYA PARK,Park,150.92103392656878,-33.790705593626335,0101000020E6100000D223241C79DD6240D7B144D735E540C0
Blacktown - South,MITCHELL RESERVE,Park,150.91745319333722,-33.782606700771396,0101000020E6100000D09FCCC65BDD6240C8B8D4742CE440C0
Blacktown - South,CATHOLIC CHURCH,Place Of Worship,150.90153351487513,-33.790097576018745,0101000020E61000005F54D05CD9DC62401FD3D8EA21E540C0
Blacktown - South,NAGLE COLLEGE,High School,150.9011420488372,-33.789820732337944,0101000020E6100000CC99D927D6DC6240108C83D818E540C0
Blacktown - South,CHURCH OF CHRIST,Place Of Worship,150.91938531590148,-33.79656385009083,0101000020E61000000607C19A6BDD624071A8E2CDF5E540C0
Blacktown - South,BLACKTOWN SES,SES Facility,150.9190395848913,-33.796114127504225,0101000020E6100000CD1AB4C568DD6240D2C15611E7E540C0
Blacktown - South,EDDIE AAW RESERVE,Park,150.91164961666436,-33.79616295437349,0101000020E6100000801FD13B2CDD624013A9EDAAE8E540C0
Blacktown - South,Park,Park,150.91790492375426,-33.779994713146095,0101000020E6100000958B257A5FDD6240F801E4DDD6E340C0
Blacktown - South,LEABON WALKWAY,Park,150.9154843179998,-33.78827528835469,0101000020E6100000ECB9C4A54BDD62403BDD6334E6E440C0
Blacktown - South,UNITING CHURCH,Place Of Worship,150.91603822010228,-33.77843361850387,0101000020E610000036A7622F50DD624060CA7AB6A3E340C0
Blacktown - South,Parking Area,Parking Area,150.9165790256663,-33.777331434578414,0101000020E6100000F66D899D54DD624062D5B0987FE340C0
Blacktown - South,Parking Area,Parking Area,150.91517543678094,-33.77688885608308,0101000020E61000007462FF1D49DD624079C0121871E340C0
Blacktown - South,Parking Area,Parking Area,150.91672670780065,-33.77763856743595,0101000020E6100000F4AB3FD355DD6240739F1BA989E340C0
Blacktown - South,Park,Park,150.89910025994308,-33.78644408179704,0101000020E6100000FB88E86DC5DC6240BCB91D33AAE440C0
Blacktown - South,Park,Park,150.8998475423768,-33.7802364717645,0101000020E61000009EBC128DCBDC6240FFAFE8C9DEE340C0
Blacktown - South,NETBALL COURTS,Sports Court,150.9126806984559,-33.79380022856252,0101000020E6100000DFF126AE34DD6240DE9DF23E9BE540C0
Blacktown - South,TENNIS COURTS,Sports Court,150.91439586620098,-33.794590501833376,0101000020E6100000C99D1EBB42DD6240158B3D24B5E540C0
Blacktown - South,Park,Park,150.89877277910625,-33.78358377443451,0101000020E61000007C9921BFC2DC6240AD6F1E794CE440C0
Blacktown - South,FLUSHCOMBE TURRETS RESERVE,Park,150.9076500053041,-33.78921091292137,0101000020E6100000DA1F06780BDD62406152FADC04E540C0
Blacktown - South,PAT ZIKAN RESERVE,Park,150.90599332776554,-33.79047659057975,0101000020E6100000B624B8E5FDDC6240956540562EE540C0
Blacktown - South,WILLIAM LAWSON PARK,Park,150.91295836681195,-33.79325913532074,0101000020E6100000240277F436DD624058BAED8389E540C0
Blacktown - South,Sports Field,Sports Field,150.91357871010948,-33.792735764729755,0101000020E6100000BF476B093CDD624022F1935D78E540C0
Blacktown - South,Sports Field,Sports Field,150.91337229612182,-33.793773309814696,0101000020E61000004D9D89583ADD6240C00B235D9AE540C0
Blacktown - South,Sports Field,Sports Field,150.9143545158501,-33.79327385419747,0101000020E6100000D6D0666442DD6240674666FF89E540C0
Blacktown - South,Parking Area,Parking Area,150.9123126640739,-33.79438711831887,0101000020E610000092FD53AA31DD624089C5227AAEE540C0
Blacktown - South,SALVATION ARMY YOUTH CENTRE,Community Facility,150.89731276164804,-33.798848078750034,0101000020E6100000FAB140C9B6DC6240175A62A740E640C0
Blacktown - South,Parking Area,Parking Area,150.89715118616945,-33.79399563446916,0101000020E61000004B856776B5DC62401D9B21A6A1E540C0
Blacktown - South,TINAS KINDERGARTEN,Child Care Centre,150.89840177758887,-33.78904492634504,0101000020E610000033AD15B5BFDC624004DD946CFFE440C0
Blacktown - South,GLEESONS TREES RESERVE,Park,150.90423319664563,-33.79123838555543,0101000020E61000009EF1747AEFDC624074A6A64C47E540C0
Blacktown - South,ST JOHNS AMBULANCE HALL,Community Facility,150.91182649404553,-33.79449382497931,0101000020E6100000A971C1AE2DDD62407E9441F9B1E540C0
Blacktown - South,MUJAR BIJA RESERVE,Park,150.9171446885125,-33.7794207585322,0101000020E6100000905BD13F59DD624012DC350FC4E340C0
Blacktown - South,ROBERT BROWN RESERVE,Park,150.90207527085664,-33.79921979642056,0101000020E6100000825BF5CCDDDC624096F893D54CE640C0
Blacktown - South,UNITING MULLAUNA BLACKTOWN,Nursing Home,150.91541226502915,-33.77786720235475,0101000020E61000000A95A90E4BDD6240515F092791E340C0
Blacktown - South,ST MICHAEL'S PRIMARY SCHOOL,Primary School,150.90019389232617,-33.79005773069356,0101000020E610000032F36B63CEDC6240F2A3999C20E540C0
Blacktown - South,BLACKTOWN SOUTH PUBLIC SCHOOL,Primary School,150.9057079680341,-33.78047659900319,0101000020E6100000DCCD468FFBDC624089013EA8E6E340C0
Blacktown - South,SHELLEY PUBLIC SCHOOL,Primary School,150.91763270547708,-33.78924870479963,0101000020E61000007378433F5DDD62402CC3FF1906E540C0
